#Name	Car.CFR.tx	Car.CFR.ty	Car.CFR.tz	Car.Pitch	Car.Road.Lane.Act.LaneId	Car.Road.Lane.Act.isRight	Car.Road.Lane.Act.tMidLane	Car.Road.Lane.OnLeft.LaneId	Car.Road.Lane.OnLeft.isRight	Car.Road.Lane.OnLeft.tMidLane	Car.Road.Lane.OnRight.LaneId	Car.Road.Lane.OnRight.isRight	Car.Road.sRoad	Car.Roll	Car.WRL.rot	Car.WRR.rot	Car.Yaw	Car.YawRate	Car.ax	Car.ay	Car.v	DM.Steer.Ang	LatCtrl.DistToLeft	LatCtrl.DistToRight	Sensor.Object.OB01.Obj.T00.RefPnt.alpha	Sensor.Object.OB01.Obj.T00.RefPnt.ds.x	Sensor.Object.OB01.Obj.T00.RefPnt.ds.y	Sensor.Object.OB01.Obj.T00.RefPnt.dv.x	Sensor.Object.OB01.Obj.T00.RefPnt.dv.y	Sensor.Object.OB01.Obj.T00.RefPnt.theta	Sensor.Object.OB01.Obj.T00.dtct	Sensor.Object.OB01.Obj.T01.RefPnt.ds.x	Sensor.Object.OB01.Obj.T01.RefPnt.dv.x	Sensor.Object.OB01.Obj.T01.obsv	Sensor.Object.OB01.TimeStamp	Sensor.Object.OB01.relvTgt.RefPnt.alpha	Sensor.Object.OB01.relvTgt.RefPnt.ds.x	Sensor.Object.OB01.relvTgt.RefPnt.ds.y	Sensor.Object.OB01.relvTgt.RefPnt.ds.z	Sensor.Object.OB01.relvTgt.RefPnt.ds_p	Sensor.Object.OB01.relvTgt.RefPnt.dv.x	Sensor.Object.OB01.relvTgt.RefPnt.dv.y	Sensor.Object.OB01.relvTgt.RefPnt.dv.z	Sensor.Object.OB01.relvTgt.RefPnt.dv_p	Sensor.Object.OB01.relvTgt.RefPnt.r_zyx.x	Sensor.Object.OB01.relvTgt.RefPnt.r_zyx.y	Sensor.Object.OB01.relvTgt.RefPnt.r_zyx.z	Sensor.Object.OB01.relvTgt.RefPnt.theta	Sensor.Road.RD00.Path.DevAng	Steer.WhlAng	Time	Time.Global	Traffic.T00.DetectLevel	Traffic.T00.Lane.Act.LaneId	Traffic.T00.LongAcc	Traffic.T00.LongVel	Traffic.T00.tRoad	VC.Brake	VC.Gas	VC.Steer.Ang
#Unit	m	m	m	rad	-	-	m	-	-	m	-	-	m	rad	rad	rad	rad	rad/s	m/s^2	m/s^2	m/s	rad	m	m	rad	m	m	m/s	m/s	rad	-	m	m/s	-	s	rad	m	m	m	m	m/s	m/s	m/s	m/s	rad	rad	rad	rad	rad	rad	s	s	-	-	m/s^2	m/s	m	-	-	rad
#nStates	0	0	0	0	0	0	0	0	0	0	0	0	0	0	0	0	0	0	0	0	0	0	0	0	0	0	0	0	0	0	2	0	0	2	0	0	0	0	0	0	0	0	0	0	0	0	0	0	0	0	0	0	3	0	0	0	0	0	0	0
	   -7.3544723e-005	    2.4036255e-005	    -0.00028290603	      0.0021274189	                 1	                 1	            -5.625	                 0	                 1	            -1.875	                 2	                 1	         3.4310577	     0.00011645696	       0.094804712	       0.094804712	        0.19334903	   -1.2456865e-007	       -0.14126571	     0.00077178267	         27.777778	                 0	                 0	                 0	                 0	                 0	                 0	                 0	                 0	                 0	                 0	                 0	                 0	                 0	                 0	                 0	                 0	                 0	                 0	                 0	                 0	                 0	                 0	                 0	                 0	                 0	                 0	                 0	    -0.00023367998	                 0	                 0	          5920.692	                 0	                 1	                 0	                 0	                 0	                 0	                 0	                 0
	     -0.0002899362	    2.8068459e-005	      -0.000305876	      0.0022436779	                 1	                 1	            -5.625	                 0	                 1	            -1.875	                 2	                 1	         4.8204608	     0.00015532152	          4.831925	         4.8320286	        0.19337453	      0.0016370395	       -0.42217057	       0.082444955	         27.757373	       0.022495799	           1.87515	         1.8748501	                 0	                 0	                 0	                 0	                 0	                 0	                 0	                 0	                 0	                 0	             0.048	                 0	                 0	                 0	                 0	                 0	                 0	                 0	                 0	                 0	                 0	                 0	                 0	                 0	    -0.00035376482	       0.022495799	              0.05	          5920.742	                 0	                 1	                 0	                 0	                 0	                 0	      0.0066745047	       0.022495799
	    -0.00026032495	    2.2035472e-005	   -4.7434748e-005	      0.0024750064	                 1	                 1	            -5.625	                 0	                 1	            -1.875	                 2	                 1	         6.2086018	     0.00034731747	         9.5648322	         9.5657128	        0.19353176	      0.0043833723	       -0.39388681	       0.076496405	         27.736941	       0.020407586	         1.8753746	         1.8746255	                 0	                 0	                 0	                 0	                 0	                 0	                 0	                 0	                 0	                 0	             0.096	                 0	                 0	                 0	                 0	                 0	                 0	                 0	                 0	                 0	                 0	                 0	                 0	                 0	    -0.00033845497	       0.020407586	               0.1	          5920.792	                 0	                 1	                 0	                 0	                 0	                 0	       0.016698545	       0.020407586
	    -0.00024184372	    7.9340959e-006	     0.00020991673	      0.0026651722	                 1	                 1	            -5.625	                 0	                 1	            -1.875	                 2	                 1	         7.5956495	     0.00052178609	         14.294158	          14.29637	        0.19378762	      0.0055871226	       -0.36625067	       0.076752396	         27.717911	        0.01523836	          1.875449	         1.8745508	                 0	                 0	                 0	                 0	                 0	                 0	                 0	                 0	                 0	                 0	             0.144	                 0	                 0	                 0	                 0	                 0	                 0	                 0	                 0	                 0	                 0	                 0	                 0	                 0	    -0.00022085461	        0.01523836	              0.15	          5920.842	                 0	                 1	                 0	                 0	                 0	                 0	       0.026803684	        0.01523836
	    -0.00021661088	    6.6464014e-006	      0.0003617645	      0.0027685411	                 1	                 1	            -5.625	                 0	                 1	            -1.875	                 2	                 1	         8.9817028	     0.00063466911	         19.020434	         19.024162	        0.19407415	      0.0057638806	       -0.33999141	       0.089389051	         27.700256	       0.013393666	         1.8757653	         1.8742341	                 0	                 0	                 0	                 0	                 0	                 0	                 0	                 0	                 0	                 0	             0.192	                 0	                 0	                 0	                 0	                 0	                 0	                 0	                 0	                 0	                 0	                 0	                 0	                 0	   -6.8947591e-005	       0.013393666	               0.2	          5920.892	                 0	                 1	                 0	                 0	                 0	                 0	       0.036293875	       0.013393666
	    -0.00019587175	     1.086338e-005	     0.00042161943	      0.0027901688	                 1	                 1	            -5.625	                 0	                 1	            -1.875	                 2	                 1	         10.366824	     0.00072563993	         23.743971	         23.749208	        0.19435756	       0.005541828	       -0.32047323	        0.10226342	         27.683737	       0.013093358	         1.8759343	         1.8740645	                 0	                 0	                 0	                 0	                 0	                 0	                 0	                 0	                 0	                 0	              0.24	                 0	                 0	                 0	                 0	                 0	                 0	                 0	                 0	                 0	                 0	                 0	                 0	                 0	    8.3455611e-005	       0.013093358	              0.25	          5920.942	                 0	                 1	                 0	                 0	                 0	                 0	       0.045512553	       0.013093358
	    -0.00017614954	    1.6733121e-005	     0.00041911552	      0.0027519228	                 1	                 1	            -5.625	                 0	                 1	            -1.875	                 2	                 1	         11.751052	     0.00081619216	         28.464934	         28.471603	        0.19462601	      0.0051925109	       -0.30100594	        0.11136815	         27.668193	       0.013058908	         1.8761324	         1.8738656	                 0	                 0	                 0	                 0	                 0	                 0	                 0	                 0	                 0	                 0	             0.288	                 0	                 0	                 0	                 0	                 0	                 0	                 0	                 0	                 0	                 0	                 0	                 0	                 0	     0.00022449876	       0.013058908	               0.3	          5920.992	                 0	                 1	                 0	                 0	                 0	                 0	       0.054613535	       0.013058908
	    -0.00015746251	     2.308152e-005	     0.00037070506	      0.0026721274	                 1	                 1	            -5.625	                 0	                 1	            -1.875	                 2	                 1	         13.134426	     0.00090403305	          33.18346	         33.191463	        0.19487593	      0.0048104286	       -0.28201316	         0.1167448	         27.653611	       0.012935427	         1.8761765	         1.8738214	                 0	                 0	                 0	                 0	                 0	                 0	                 0	                 0	                 0	                 0	             0.336	                 0	                 0	                 0	                 0	                 0	                 0	                 0	                 0	                 0	                 0	                 0	                 0	                 0	     0.00035060968	       0.012935427	              0.35	          5921.042	                 0	                 1	                 0	                 0	                 0	                 0	       0.063511222	       0.012935427
	    -0.00014034752	    2.9714046e-005	     0.00028192846	      0.0025656594	                 1	                 1	            -5.625	                 0	                 1	            -1.875	                 2	                 1	         14.516987	     0.00097491569	         37.899679	         37.908917	        0.19510674	      0.0044314714	       -0.26405491	        0.11910764	          27.63996	       0.012654974	         1.8761155	         1.8738819	                 0	                 0	                 0	                 0	                 0	                 0	                 0	                 0	                 0	                 0	               0.4	                 0	                 0	                 0	                 0	                 0	                 0	                 0	                 0	                 0	                 0	                 0	                 0	                 0	     0.00046118849	       0.012654974	               0.4	          5921.092	                 0	                 1	                 0	                 0	                 0	                 0	        0.07218741	       0.012654974
	    -0.00012628392	    3.6366404e-005	     0.00015701791	       0.002444861	                 1	                 1	            -5.625	                 0	                 1	            -1.875	                 2	                 1	         15.898773	      0.0010164436	         42.613719	         42.624092	        0.19531901	      0.0040701349	       -0.24782747	        0.11866824	         27.627155	       0.012230095	         1.8759784	         1.8740187	                 0	                 0	                 0	                 0	                 0	                 0	                 0	                 0	                 0	                 0	             0.448	                 0	                 0	                 0	                 0	                 0	                 0	                 0	                 0	                 0	                 0	                 0	                 0	                 0	     0.00055679912	       0.012230095	              0.45	          5921.142	                 0	                 1	                 0	                 0	                 0	                 0	       0.080699437	       0.012230095
	    -0.00011343547	    4.3071757e-005	    3.7799007e-006	      0.0023200849	                 1	                 1	            -5.625	                 0	                 1	            -1.875	                 2	                 1	         17.279819	      0.0010252338	         47.325694	         47.337108	        0.19551382	      0.0037335444	        -0.2319428	        0.11572267	         27.615152	       0.011682961	         1.8756056	         1.8743929	                 0	                 0	                 0	                 0	                 0	                 0	                 0	                 0	                 0	                 0	             0.496	                 0	                 0	                 0	                 0	                 0	                 0	                 0	                 0	                 0	                 0	                 0	                 0	                 0	     0.00063851548	       0.011682961	               0.5	          5921.192	                 0	                 1	                 0	                 0	                 0	                 0	       0.089047073	       0.011682961
	    -0.00010166815	    4.9700671e-005	    -0.00016842939	      0.0021977381	                 1	                 1	            -5.625	                 0	                 1	            -1.875	                 2	                 1	         18.660164	      0.0010048111	         52.035721	         52.048092	        0.19569252	      0.0034255245	       -0.21649411	        0.11082129	         27.603933	       0.011041971	         1.8753847	         1.8746137	                 0	                 0	                 0	                 0	                 0	                 0	                 0	                 0	                 0	                 0	             0.544	                 0	                 0	                 0	                 0	                 0	                 0	                 0	                 0	                 0	                 0	                 0	                 0	                 0	     0.00070767316	       0.011041971	              0.55	          5921.242	                 0	                 1	                 0	                 0	                 0	                 0	       0.097206784	       0.011041971
	   -9.0768519e-005	    5.6149315e-005	    -0.00035075459	      0.0020809882	                 1	                 1	            -5.625	                 0	                 1	            -1.875	                 2	                 1	         20.039845	     0.00096221794	         56.743922	          56.75717	        0.19585656	      0.0031466142	       -0.20157581	        0.10456568	         27.593474	       0.010348412	         1.8747165	         1.8752834	                 0	                 0	                 0	                 0	                 0	                 0	                 0	                 0	                 0	                 0	             0.592	                 0	                 0	                 0	                 0	                 0	                 0	                 0	                 0	                 0	                 0	                 0	                 0	                 0	     0.00076571498	       0.010348412	               0.6	          5921.292	                 0	                 1	                 0	                 0	                 0	                 0	        0.10517213	       0.010348412
	   -8.1373854e-005	    6.2285127e-005	    -0.00053569155	      0.0019711205	                 1	                 1	            -5.625	                 0	                 1	            -1.875	                 2	                 1	           21.4189	     0.00090533152	         61.450416	         61.464472	        0.19600739	      0.0028958482	       -0.18790138	       0.097605722	         27.583729	       0.009644818	         1.8743032	         1.8756987	                 0	                 0	                 0	                 0	                 0	                 0	                 0	                 0	                 0	                 0	              0.64	                 0	                 0	                 0	                 0	                 0	                 0	                 0	                 0	                 0	                 0	                 0	                 0	                 0	     0.00081406767	       0.009644818	              0.65	          5921.342	                 0	                 1	                 0	                 0	                 0	                 0	        0.11296717	       0.009644818
	   -7.2346171e-005	    6.8187561e-005	    -0.00071712726	      0.0018685969	                 1	                 1	            -5.625	                 0	                 1	            -1.875	                 2	                 1	         22.797365	     0.00084130408	         66.155318	         66.170117	        0.19614635	      0.0026711606	       -0.17450415	       0.090433915	          27.57466	      0.0089561283	          1.873373	         1.8766313	                 0	                 0	                 0	                 0	                 0	                 0	                 0	                 0	                 0	                 0	             0.688	                 0	                 0	                 0	                 0	                 0	                 0	                 0	                 0	                 0	                 0	                 0	                 0	                 0	     0.00085408199	      0.0089561283	               0.7	          5921.392	                 0	                 1	                 0	                 0	                 0	                 0	        0.12060164	      0.0089561283
	   -6.3488608e-005	    7.3862747e-005	    -0.00089117177	      0.0017727512	                 1	                 1	            -5.625	                 0	                 1	            -1.875	                 2	                 1	         24.175274	     0.00077568578	         70.858739	         70.874225	        0.19627467	      0.0024695553	       -0.16147971	       0.083410764	         27.566254	      0.0082981048	         1.8728346	         1.8771701	                 0	                 0	                 0	                 0	                 0	                 0	                 0	                 0	                 0	                 0	             0.736	                 0	                 0	                 0	                 0	                 0	                 0	                 0	                 0	                 0	                 0	                 0	                 0	                 0	     0.00088697991	      0.0082981048	              0.75	          5921.442	                 0	                 1	                 0	                 0	                 0	                 0	        0.12805858	      0.0082981048
	   -5.4734364e-005	    7.9318625e-005	      -0.001055988	      0.0016824307	                 1	                 1	            -5.625	                 0	                 1	            -1.875	                 2	                 1	         25.552664	     0.00071220124	          75.56079	         75.576911	        0.19639344	      0.0022880813	       -0.14874257	       0.076714963	         27.558491	      0.0076748239	         1.8716633	         1.8783443	                 0	                 0	                 0	                 0	                 0	                 0	                 0	                 0	                 0	                 0	               0.8	                 0	                 0	                 0	                 0	                 0	                 0	                 0	                 0	                 0	                 0	                 0	                 0	                 0	     0.00091382837	      0.0076748239	               0.8	          5921.492	                 0	                 1	                 0	                 0	                 0	                 0	        0.13533417	      0.0076748239
	   -4.6251237e-005	    8.4561941e-005	     -0.0012112571	      0.0015964759	                 1	                 1	            -5.625	                 0	                 1	            -1.875	                 2	                 1	         26.929567	     0.00065286373	          80.26158	         80.278291	        0.19650358	      0.0021233069	       -0.13665967	       0.070519261	         27.551353	      0.0070895013	           1.87106	         1.8789505	                 0	                 0	                 0	                 0	                 0	                 0	                 0	                 0	                 0	                 0	             0.848	                 0	                 0	                 0	                 0	                 0	                 0	                 0	                 0	                 0	                 0	                 0	                 0	                 0	     0.00093554797	      0.0070895013	              0.85	          5921.542	                 0	                 1	                 0	                 0	                 0	                 0	        0.14242544	      0.0070895013
	   -3.8231706e-005	    8.9596252e-005	      -0.001357247	      0.0015142897	                 1	                 1	            -5.625	                 0	                 1	            -1.875	                 2	                 1	         28.306015	     0.00059860574	         84.961212	         84.978469	        0.19660584	      0.0019717915	       -0.12513241	       0.064867986	         27.544802	      0.0065473006	         1.8697258	         1.8802881	                 0	                 0	                 0	                 0	                 0	                 0	                 0	                 0	                 0	                 0	             0.896	                 0	                 0	                 0	                 0	                 0	                 0	                 0	                 0	                 0	                 0	                 0	                 0	                 0	     0.00095287325	      0.0065473006	               0.9	          5921.592	                 0	                 1	                 0	                 0	                 0	                 0	         0.1493546	      0.0065473006
	   -3.0215797e-005	    9.4489118e-005	     -0.0014944508	      0.0014355309	                 1	                 1	            -5.625	                 0	                 1	            -1.875	                 2	                 1	          29.68204	     0.00054963554	         89.659784	         89.677549	        0.19670079	      0.0018308151	       -0.11388921	       0.059733131	          27.53882	      0.0060438256	         1.8690074	           1.88101	                 0	                 0	                 0	                 0	                 0	                 0	                 0	                 0	                 0	                 0	             0.944	                 0	                 0	                 0	                 0	                 0	                 0	                 0	                 0	                 0	                 0	                 0	                 0	                 0	     0.00096638916	      0.0060438256	              0.95	          5921.642	                 0	                 1	                 0	                 0	                 0	                 0	        0.15611299	      0.0060438256
	   -2.2256135e-005	    9.9250066e-005	     -0.0016237876	      0.0013597514	                 1	                 1	            -5.625	                 0	                 1	            -1.875	                 2	                 1	          31.05767	     0.00050564419	         94.357391	         94.375627	        0.19678892	      0.0016981372	       -0.10294526	       0.055061361	         27.533394	       0.005574354	         1.8675604	         1.8824607	                 0	                 0	                 0	                 0	                 0	                 0	                 0	                 0	                 0	                 0	             0.992	                 0	                 0	                 0	                 0	                 0	                 0	                 0	                 0	                 0	                 0	                 0	                 0	                 0	     0.00097655754	       0.005574354	                 1	          5921.692	                 0	                 1	                 0	                 0	                 0	                 0	        0.16269383	       0.005574354
	   -1.4394691e-005	     0.00010389307	     -0.0017463715	      0.0012865317	                 1	                 1	            -5.625	                 0	                 1	            -1.875	                 2	                 1	         32.432936	     0.00046602828	         99.054126	         99.072799	        0.19687059	      0.0015720277	      -0.092304832	       0.050787458	         27.528507	      0.0051340634	         1.8668129	         1.8832082	                 0	                 0	                 0	                 0	                 0	                 0	                 0	                 0	                 0	                 0	              1.04	                 0	                 0	                 0	                 0	                 0	                 0	                 0	                 0	                 0	                 0	                 0	                 0	                 0	     0.00098374122	      0.0051340634	              1.05	          5921.742	                 0	                 1	                 0	                 0	                 0	                 0	        0.16909438	      0.0051340634
	   -6.7537865e-006	     0.00010842154	     -0.0018632853	      0.0012155506	                 1	                 1	            -5.625	                 0	                 1	            -1.875	                 2	                 1	         33.807864	     0.00043007175	         103.75008	         103.76916	        0.19694609	      0.0014512227	      -0.082116122	       0.046843502	         27.524144	      0.0047183499	         1.8652698	         1.8847549	                 0	                 0	                 0	                 0	                 0	                 0	                 0	                 0	                 0	                 0	             1.088	                 0	                 0	                 0	                 0	                 0	                 0	                 0	                 0	                 0	                 0	                 0	                 0	                 0	     0.00098822945	      0.0047183499	               1.1	          5921.792	                 0	                 1	                 0	                 0	                 0	                 0	        0.17531342	      0.0047183499
	    3.7286033e-007	     0.00011280571	      -0.001975319	      0.0011467887	                 1	                 1	            -5.625	                 0	                 1	            -1.875	                 2	                 1	         35.182481	     0.00039707189	         108.44534	         108.46479	        0.19701567	       0.001334897	      -0.072463811	       0.043168425	         27.520275	      0.0043235411	         1.8644972	         1.8855313	                 0	                 0	                 0	                 0	                 0	                 0	                 0	                 0	                 0	                 0	             1.136	                 0	                 0	                 0	                 0	                 0	                 0	                 0	                 0	                 0	                 0	                 0	                 0	                 0	     0.00099025986	      0.0043235411	              1.15	          5921.842	                 0	                 1	                 0	                 0	                 0	                 0	         0.1813644	      0.0043235411
	    7.3468198e-006	     0.00011708867	     -0.0020829201	      0.0010803852	                 1	                 1	            -5.625	                 0	                 1	            -1.875	                 2	                 1	         36.556814	     0.00036640961	         113.13999	         113.15978	        0.19707953	       0.001222488	      -0.063082649	       0.039709127	         27.516882	      0.0039460842	         1.8629085	         1.8871235	                 0	                 0	                 0	                 0	                 0	                 0	                 0	                 0	                 0	                 0	               1.2	                 0	                 0	                 0	                 0	                 0	                 0	                 0	                 0	                 0	                 0	                 0	                 0	                 0	     0.00099003656	      0.0039460842	               1.2	          5921.892	                 0	                 1	                 0	                 0	                 0	                 0	        0.18724328	      0.0039460842
	    1.4137735e-005	     0.00012126663	     -0.0021865054	      0.0010162967	                 1	                 1	            -5.625	                 0	                 1	            -1.875	                 2	                 1	         37.930887	     0.00033757512	         117.83411	         117.85421	        0.19713786	      0.0011135408	      -0.053993658	       0.036424179	         27.513951	      0.0035835026	          1.862084	          1.887952	                 0	                 0	                 0	                 0	                 0	                 0	                 0	                 0	                 0	                 0	             1.248	                 0	                 0	                 0	                 0	                 0	                 0	                 0	                 0	                 0	                 0	                 0	                 0	                 0	     0.00098773881	      0.0035835026	              1.25	          5921.942	                 0	                 1	                 0	                 0	                 0	                 0	         0.1929425	      0.0035835026
	    1.7552339e-005	      0.0001249663	     -0.0022862982	     0.00095474862	                 1	                 1	            -5.625	                 0	                 1	            -1.875	                 2	                 1	         39.304723	     0.00031018148	         122.52776	         122.54815	        0.19719083	      0.0010078649	      -0.050206039	       0.033279431	         27.511414	      0.0032339233	         1.8604735	         1.8895658	                 0	                 0	                 0	                 0	                 0	                 0	                 0	                 0	                 0	                 0	             1.296	                 0	                 0	                 0	                 0	                 0	                 0	                 0	                 0	                 0	                 0	                 0	                 0	                 0	     0.00098353073	      0.0032339233	               1.3	          5921.992	                 0	                 1	                 0	                 0	                 0	                 0	        0.19430036	      0.0032339233
	    8.6748298e-006	     0.00012678527	     -0.0023773115	       0.000903027	                 1	                 1	            -5.625	                 0	                 1	            -1.875	                 2	                 1	         40.678326	     0.00028393681	         127.22098	         127.24162	        0.19723859	     0.00090527477	      -0.055320839	       0.030247498	         27.508751	      0.0028954559	         1.8596701	         1.8903687	                 0	                 0	                 0	                 0	                 0	                 0	                 0	                 0	                 0	                 0	             1.344	                 0	                 0	                 0	                 0	                 0	                 0	                 0	                 0	                 0	                 0	                 0	                 0	                 0	     0.00097756679	      0.0028954559	              1.35	          5922.042	                 0	                 1	                 0	                 0	                 0	                 0	        0.19122648	      0.0028954559
	   -6.4258103e-007	     0.00012781602	     -0.0024497264	     0.00087068512	                 1	                 1	            -5.625	                 0	                 1	            -1.875	                 2	                 1	         42.051681	     0.00025862315	          131.9137	         131.93457	        0.19728131	     0.00080581109	      -0.061986737	        0.02732085	         27.505846	       0.002566691	         1.8580371	         1.8920047	                 0	                 0	                 0	                 0	                 0	                 0	                 0	                 0	                 0	                 0	             1.392	                 0	                 0	                 0	                 0	                 0	                 0	                 0	                 0	                 0	                 0	                 0	                 0	                 0	     0.00097000065	       0.002566691	               1.4	          5922.092	                 0	                 1	                 0	                 0	                 0	                 0	        0.18663663	       0.002566691
	   -1.5911721e-005	     0.00012707569	     -0.0024970047	      0.0008618213	                 1	                 1	            -5.625	                 0	                 1	            -1.875	                 2	                 1	         43.424769	     0.00023438269	         136.60586	         136.62693	        0.19731913	      0.0007092747	      -0.074773538	       0.024439512	         27.502463	      0.0022475376	         1.8572247	         1.8928207	                 0	                 0	                 0	                 0	                 0	                 0	                 0	                 0	                 0	                 0	              1.44	                 0	                 0	                 0	                 0	                 0	                 0	                 0	                 0	                 0	                 0	                 0	                 0	                 0	     0.00096098273	      0.0022475376	              1.45	          5922.142	                 0	                 1	                 0	                 0	                 0	                 0	         0.1781579	      0.0022475376
	    -3.890498e-005	     0.00012404152	     -0.0025125142	     0.00088019897	                 1	                 1	            -5.625	                 0	                 1	            -1.875	                 2	                 1	         44.797557	     0.00021196347	         141.29733	         141.31858	        0.19735219	     0.00061560927	      -0.095445318	       0.021652496	          27.49826	      0.0019393181	         1.8555996	         1.8944485	                 0	                 0	                 0	                 0	                 0	                 0	                 0	                 0	                 0	                 0	             1.488	                 0	                 0	                 0	                 0	                 0	                 0	                 0	                 0	                 0	                 0	                 0	                 0	                 0	     0.00095065181	      0.0019393181	               1.5	          5922.192	                 0	                 1	                 0	                 0	                 0	                 0	        0.16489191	      0.0019393181
	   -7.1202128e-005	     0.00011817562	      -0.002488039	     0.00093078807	                 1	                 1	            -5.625	                 0	                 1	            -1.875	                 2	                 1	         46.169991	     0.00019042393	         145.98794	         146.00934	        0.19738065	     0.00052490531	       -0.12507664	       0.019042438	           27.4928	       0.001638442	         1.8547769	         1.8952705	                 0	                 0	                 0	                 0	                 0	                 0	                 0	                 0	                 0	                 0	             1.536	                 0	                 0	                 0	                 0	                 0	                 0	                 0	                 0	                 0	                 0	                 0	                 0	                 0	      0.0009391573	       0.001638442	              1.55	          5922.242	                 0	                 1	                 0	                 0	                 0	                 0	        0.14644458	       0.001638442
	    -0.00011295915	     0.00010907574	     -0.0024147358	      0.0010202001	                 1	                 1	            -5.625	                 0	                 1	            -1.875	                 2	                 1	         47.541995	     0.00016899763	         150.67742	         150.69896	        0.19740463	     0.00043673354	        -0.1645215	       0.016500782	         27.485636	      0.0013465832	          1.853166	         1.8968878	                 0	                 0	                 0	                 0	                 0	                 0	                 0	                 0	                 0	                 0	               1.6	                 0	                 0	                 0	                 0	                 0	                 0	                 0	                 0	                 0	                 0	                 0	                 0	                 0	     0.00092663242	      0.0013465832	               1.6	          5922.292	                 0	                 1	                 0	                 0	                 0	                 0	        0.12272113	      0.0013465832
	    -0.00016559544	    9.6131764e-005	     -0.0022822509	      0.0011560382	                 1	                 1	            -5.625	                 0	                 1	            -1.875	                 2	                 1	         48.913465	     0.00014771498	         155.36543	         155.38707	        0.19742427	     0.00035092026	        -0.2147491	        0.01401506	         27.476234	      0.0010623689	         1.8523777	         1.8976751	                 0	                 0	                 0	                 0	                 0	                 0	                 0	                 0	                 0	                 0	             1.648	                 0	                 0	                 0	                 0	                 0	                 0	                 0	                 0	                 0	                 0	                 0	                 0	                 0	     0.00091319624	      0.0010623689	              1.65	          5922.342	                 0	                 1	                 0	                 0	                 0	                 0	       0.093778386	      0.0010623689
	    -0.00023085791	    7.8748153e-005	     -0.0020800257	      0.0013462261	                 1	                 1	            -5.625	                 0	                 1	            -1.875	                 2	                 1	         50.284271	     0.00012671819	         160.05152	         160.07325	        0.19743968	     0.00026743295	       -0.27810211	       0.011583977	         27.464008	     0.00078356735	         1.8507912	         1.8992635	                 0	                 0	                 0	                 0	                 0	                 0	                 0	                 0	                 0	                 0	             1.696	                 0	                 0	                 0	                 0	                 0	                 0	                 0	                 0	                 0	                 0	                 0	                 0	                 0	     0.00089896575	     0.00078356735	               1.7	          5922.392	                 0	                 1	                 0	                 0	                 0	                 0	       0.059798664	     0.00078356735
	    -0.00031506323	    5.5802888e-005	     -0.0017966615	      0.0016002159	                 1	                 1	            -5.625	                 0	                 1	            -1.875	                 2	                 1	         51.654251	     0.00010614102	         164.73514	         164.75692	        0.19745097	     0.00018619391	       -0.36362006	      0.0092208136	         27.448178	     0.00051295428	         1.8492263	         1.9008302	                 0	                 0	                 0	                 0	                 0	                 0	                 0	                 0	                 0	                 0	             1.744	                 0	                 0	                 0	                 0	                 0	                 0	                 0	                 0	                 0	                 0	                 0	                 0	                 0	     0.00088405045	     0.00051295428	              1.75	          5922.442	                 0	                 1	                 0	                 0	                 0	                 0	       0.021086143	     0.00051295428
	    -0.00040933494	    2.7433153e-005	     -0.0014133714	      0.0019361943	                 1	                 1	            -5.625	                 0	                 1	            -1.875	                 2	                 1	         53.023177	    8.6083775e-005	         169.41551	         169.43734	        0.19745826	     0.00010734488	        -0.4341141	      0.0069105327	         27.427561	     0.00024800879	          1.848456	         1.9016027	                 0	                 0	                 0	                 0	                 0	                 0	                 0	                 0	                 0	                 0	             1.792	                 0	                 0	                 0	                 0	                 0	                 0	                 0	                 0	                 0	                 0	                 0	                 0	                 0	     0.00086856144	     0.00024800879	               1.8	          5922.492	                 0	                 1	                 0	                 0	                 0	                 0	                 0	     0.00024800879
	    -0.00040021548	    9.4429242e-006	    -0.00094894946	      0.0023139407	                 1	                 1	            -5.625	                 0	                 1	            -1.875	                 2	                 1	         54.390919	     6.656852e-005	         174.09214	         174.11399	        0.19746165	     3.018856e-005	       -0.43320531	      0.0046981658	          27.40588	   -6.6089045e-006	         1.8469318	         1.9031281	                 0	                 0	                 0	                 0	                 0	                 0	                 0	                 0	                 0	                 0	              1.84	                 0	                 0	                 0	                 0	                 0	                 0	                 0	                 0	                 0	                 0	                 0	                 0	                 0	     0.00085260225	   -6.6089045e-006	              1.85	          5922.542	                 0	                 1	                 0	                 0	                 0	                 0	                 0	   -6.6089045e-006
	     -0.0003905544	   -7.6210902e-006	    -0.00048830954	      0.0026473529	                 1	                 1	            -5.625	                 0	                 1	            -1.875	                 2	                 1	         55.757523	     4.770536e-005	         178.76516	         178.78701	        0.19746122	    -4.577412e-005	        -0.4335894	      0.0025607085	         27.384199	    -0.00024919505	         1.8461739	         1.9038854	                 0	                 0	                 0	                 0	                 0	                 0	                 0	                 0	                 0	                 0	             1.888	                 0	                 0	                 0	                 0	                 0	                 0	                 0	                 0	                 0	                 0	                 0	                 0	                 0	     0.00083622635	    -0.00024919505	               1.9	          5922.592	                 0	                 1	                 0	                 0	                 0	                 0	                 0	    -0.00024919505
	    -0.00038224922	   -2.2088225e-005	   -9.1357112e-005	      0.0029065121	                 1	                 1	            -5.625	                 0	                 1	            -1.875	                 2	                 1	         57.123007	    2.9518405e-005	         183.43466	         183.45648	        0.19745702	    -0.00012050047	       -0.43333672	     0.00046330981	         27.362525	    -0.00048766592	         1.8446938	         1.9053685	                 0	                 0	                 0	                 0	                 0	                 0	                 0	                 0	                 0	                 0	             1.936	                 0	                 0	                 0	                 0	                 0	                 0	                 0	                 0	                 0	                 0	                 0	                 0	                 0	      0.0008194869	    -0.00048766592	              1.95	          5922.642	                 0	                 1	                 0	                 0	                 0	                 0	                 0	    -0.00048766592
	    -0.00037580334	   -3.3202779e-005	     0.00021554621	      0.0030912882	                 1	                 1	            -5.625	                 0	                 1	            -1.875	                 2	                 1	         58.487375	    1.1879002e-005	         188.10062	          188.1224	        0.19744911	    -0.00019401662	       -0.43278241	     -0.0015945549	         27.340876	    -0.00072233501	         1.8439673	         1.9060944	                 0	                 0	                 0	                 0	                 0	                 0	                 0	                 0	                 0	                 0	                 2	                 0	                 0	                 0	                 0	                 0	                 0	                 0	                 0	                 0	                 0	                 0	                 0	                 0	     0.00080243511	    -0.00072233501	                 2	          5922.692	                 0	                 1	                 0	                 0	                 0	                 0	                 0	    -0.00072233501
	    -0.00037144557	   -4.0996144e-005	     0.00042757047	      0.0032123937	                 1	                 1	            -5.625	                 0	                 1	            -1.875	                 2	                 1	         59.850622	   -5.3591037e-006	         192.76304	         192.78476	        0.19743757	    -0.00026629789	       -0.43212031	     -0.0036166025	         27.319259	    -0.00095354541	         1.8425306	         1.9075318	                 0	                 0	                 0	                 0	                 0	                 0	                 0	                 0	                 0	                 0	             2.048	                 0	                 0	                 0	                 0	                 0	                 0	                 0	                 0	                 0	                 0	                 0	                 0	                 0	     0.00078512322	    -0.00095354541	              2.05	          5922.742	                 0	                 1	                 0	                 0	                 0	                 0	                 0	    -0.00095354541
	    -0.00036905741	   -4.5877687e-005	      0.0005530912	      0.0032834951	                 1	                 1	            -5.625	                 0	                 1	            -1.875	                 2	                 1	         61.212744	   -2.2298927e-005	         197.42189	         197.44354	        0.19742243	    -0.00033732066	       -0.43144269	      -0.005605273	         27.297675	     -0.0011812777	         1.8418249	         1.9082381	                 0	                 0	                 0	                 0	                 0	                 0	                 0	                 0	                 0	                 0	             2.096	                 0	                 0	                 0	                 0	                 0	                 0	                 0	                 0	                 0	                 0	                 0	                 0	                 0	     0.00076760452	     -0.0011812777	               2.1	          5922.792	                 0	                 1	                 0	                 0	                 0	                 0	                 0	     -0.0011812777
	    -0.00036831752	   -4.8421138e-005	     0.00060765583	      0.0033178963	                 1	                 1	            -5.625	                 0	                 1	            -1.875	                 2	                 1	         62.573736	   -3.8992788e-005	         202.07715	          202.0987	        0.19740378	    -0.00040710893	       -0.43079265	     -0.0075627784	         27.276124	     -0.0014056911	         1.8404374	         1.9096257	                 0	                 0	                 0	                 0	                 0	                 0	                 0	                 0	                 0	                 0	             2.144	                 0	                 0	                 0	                 0	                 0	                 0	                 0	                 0	                 0	                 0	                 0	                 0	                 0	     0.00074993242	     -0.0014056911	              2.15	          5922.842	                 0	                 1	                 0	                 0	                 0	                 0	                 0	     -0.0014056911
	    -0.00036881385	   -4.9242443e-005	     0.00060967699	      0.0033272182	                 1	                 1	            -5.625	                 0	                 1	            -1.875	                 2	                 1	         63.933594	   -5.5442371e-005	          206.7288	         206.75023	        0.19738167	    -0.00047567602	        -0.4301881	     -0.0094941655	         27.254603	     -0.0016272291	         1.8397561	         1.9103072	                 0	                 0	                 0	                 0	                 0	                 0	                 0	                 0	                 0	                 0	             2.192	                 0	                 0	                 0	                 0	                 0	                 0	                 0	                 0	                 0	                 0	                 0	                 0	                 0	     0.00073215899	     -0.0016272291	               2.2	          5922.892	                 0	                 1	                 0	                 0	                 0	                 0	                 0	     -0.0016272291
	     -0.0003701094	   -4.8939833e-005	     0.00057764285	       0.003321067	                 1	                 1	            -5.625	                 0	                 1	            -1.875	                 2	                 1	         65.292315	   -7.1477022e-005	         211.37683	         211.39812	        0.19735617	    -0.00054315408	        -0.4296287	      -0.011410675	          27.23311	     -0.0018454057	         1.8384203	          1.911643	                 0	                 0	                 0	                 0	                 0	                 0	                 0	                 0	                 0	                 0	              2.24	                 0	                 0	                 0	                 0	                 0	                 0	                 0	                 0	                 0	                 0	                 0	                 0	                 0	     0.00071433404	     -0.0018454057	              2.25	          5922.942	                 0	                 1	                 0	                 0	                 0	      0.0053240478	                 0	     -0.0018454057
	    -0.00042800656	   -4.8743304e-005	     0.00052605245	         0.0033127	                 1	                 1	            -5.625	                 0	                 1	            -1.875	                 2	                 1	         66.649883	   -8.7134493e-005	         216.02092	         216.04207	        0.19732731	    -0.00060962022	       -0.53036559	      -0.013273482	         27.210565	     -0.0020593907	         1.8377621	         1.9123008	                 0	                 0	                 0	                 0	                 0	                 0	                 0	                 0	                 0	                 0	             2.288	                 0	                 0	                 0	                 0	                 0	                 0	                 0	                 0	                 0	                 0	                 0	                 0	                 0	     0.00069650177	     -0.0020593907	               2.3	          5922.992	                 0	                 1	                 0	                 0	                 0	       0.028573681	                 0	     -0.0020593907
	     -0.0006870831	   -5.6586355e-005	     0.00053513021	      0.0034377661	                 1	                 1	            -5.625	                 0	                 1	            -1.875	                 2	                 1	         68.005929	    -0.00010259986	         220.65771	         220.67869	        0.19729514	    -0.00067599193	       -0.82795772	       -0.01498038	         27.177012	     -0.0022532897	         1.8364763	         1.9135864	                 0	                 0	                 0	                 0	                 0	                 0	                 0	                 0	                 0	                 0	             2.336	                 0	                 0	                 0	                 0	                 0	                 0	                 0	                 0	                 0	                 0	                 0	                 0	                 0	     0.00067867907	     -0.0022532897	              2.35	          5923.042	                 0	                 1	                 0	                 0	                 0	       0.058822973	                 0	     -0.0022532897
	    -0.00096409793	   -7.4355078e-005	     0.00082460364	      0.0038923229	                 1	                 1	            -5.625	                 0	                 1	            -1.875	                 2	                 1	         69.359625	    -0.00011772361	         225.28324	           225.304	        0.19725963	    -0.00074281622	        -1.1402978	      -0.016518047	         27.127842	     -0.0024111461	          1.835848	         1.9142134	                 0	                 0	                 0	                 0	                 0	                 0	                 0	                 0	                 0	                 0	               2.4	                 0	                 0	                 0	                 0	                 0	                 0	                 0	                 0	                 0	                 0	                 0	                 0	                 0	     0.00066082159	     -0.0024111461	               2.4	          5923.092	                 0	                 1	                 0	                 0	                 0	       0.085687306	                 0	     -0.0024111461
	     -0.0011928367	    -0.00010277602	      0.0015038638	      0.0047074584	                 1	                 1	            -5.625	                 0	                 1	            -1.875	                 2	                 1	         70.710191	    -0.00013197581	         229.89488	          229.9154	        0.19722081	    -0.00080904824	        -1.3964727	      -0.018025644	         27.064311	     -0.0025608449	         1.8346135	         1.9154472	                 0	                 0	                 0	                 0	                 0	                 0	                 0	                 0	                 0	                 0	             2.448	                 0	                 0	                 0	                 0	                 0	                 0	                 0	                 0	                 0	                 0	                 0	                 0	                 0	     0.00064291515	     -0.0025608449	              2.45	          5923.142	                 0	                 1	                 0	                 0	                 0	        0.10792876	                 0	     -0.0025608449
