#Name	Car.CFR.tx	Car.CFR.ty	Car.CFR.tz	Car.Pitch	Car.Road.Lane.Act.LaneId	Car.Road.Lane.Act.isRight	Car.Road.Lane.Act.tMidLane	Car.Road.Lane.OnLeft.LaneId	Car.Road.Lane.OnLeft.isRight	Car.Road.Lane.OnLeft.tMidLane	Car.Road.Lane.OnRight.LaneId	Car.Road.Lane.OnRight.isRight	Car.Road.sRoad	Car.Roll	Car.WRL.rot	Car.WRR.rot	Car.Yaw	Car.YawRate	Car.ax	Car.ay	Car.v	DM.Steer.Ang	LatCtrl.DistToLeft	LatCtrl.DistToRight	Sensor.Object.OB01.Obj.T00.RefPnt.alpha	Sensor.Object.OB01.Obj.T00.RefPnt.ds.x	Sensor.Object.OB01.Obj.T00.RefPnt.ds.y	Sensor.Object.OB01.Obj.T00.RefPnt.dv.x	Sensor.Object.OB01.Obj.T00.RefPnt.dv.y	Sensor.Object.OB01.Obj.T00.RefPnt.theta	Sensor.Object.OB01.Obj.T00.dtct	Sensor.Object.OB01.Obj.T01.RefPnt.ds.x	Sensor.Object.OB01.Obj.T01.RefPnt.dv.x	Sensor.Object.OB01.Obj.T01.obsv	Sensor.Object.OB01.TimeStamp	Sensor.Object.OB01.relvTgt.RefPnt.alpha	Sensor.Object.OB01.relvTgt.RefPnt.ds.x	Sensor.Object.OB01.relvTgt.RefPnt.ds.y	Sensor.Object.OB01.relvTgt.RefPnt.ds.z	Sensor.Object.OB01.relvTgt.RefPnt.ds_p	Sensor.Object.OB01.relvTgt.RefPnt.dv.x	Sensor.Object.OB01.relvTgt.RefPnt.dv.y	Sensor.Object.OB01.relvTgt.RefPnt.dv.z	Sensor.Object.OB01.relvTgt.RefPnt.dv_p	Sensor.Object.OB01.relvTgt.RefPnt.r_zyx.x	Sensor.Object.OB01.relvTgt.RefPnt.r_zyx.y	Sensor.Object.OB01.relvTgt.RefPnt.r_zyx.z	Sensor.Object.OB01.relvTgt.RefPnt.theta	Sensor.Road.RD00.Path.DevAng	Steer.WhlAng	Time	Time.Global	Traffic.T00.DetectLevel	Traffic.T00.Lane.Act.LaneId	Traffic.T00.LongAcc	Traffic.T00.LongVel	Traffic.T00.tRoad	VC.Brake	VC.Gas	VC.Steer.Ang
#Unit	m	m	m	rad	-	-	m	-	-	m	-	-	m	rad	rad	rad	rad	rad/s	m/s^2	m/s^2	m/s	rad	m	m	rad	m	m	m/s	m/s	rad	-	m	m/s	-	s	rad	m	m	m	m	m/s	m/s	m/s	m/s	rad	rad	rad	rad	rad	rad	s	s	-	-	m/s^2	m/s	m	-	-	rad
#nStates	0	0	0	0	0	0	0	0	0	0	0	0	0	0	0	0	0	0	0	0	0	0	0	0	0	0	0	0	0	0	2	0	0	2	0	0	0	0	0	0	0	0	0	0	0	0	0	0	0	0	0	0	3	0	0	0	0	0	0	0
	   -7.3544723e-005	    2.4036255e-005	    -0.00028290603	      0.0021274189	                 1	                 1	            -5.625	                 0	                 1	            -1.875	                 2	                 1	         3.4310577	     0.00011645696	       0.094804712	       0.094804712	        0.19334903	   -1.2456865e-007	       -0.14126571	     0.00077178267	         27.777778	                 0	                 0	                 0	                 0	                 0	                 0	                 0	                 0	                 0	                 0	                 0	                 0	                 0	                 0	                 0	                 0	                 0	                 0	                 0	                 0	                 0	                 0	                 0	                 0	                 0	                 0	                 0	    -0.00023367998	                 0	                 0	          5798.652	                 0	                 0	                 0	                 0	                 0	                 0	                 0	                 0
	    -0.00028993595	    2.8068487e-005	      -0.000305876	      0.0022436779	                 1	                 1	            -5.625	                 0	                 1	            -1.875	                 2	                 1	         4.8204608	     0.00015532152	          4.831925	         4.8320286	        0.19337453	      0.0016370395	       -0.42217005	       0.082444956	         27.757373	       0.022495799	           1.87515	         1.8748501	                 0	                 0	                 0	                 0	                 0	                 0	                 0	                 0	                 0	                 0	             0.048	                 0	                 0	                 0	                 0	                 0	                 0	                 0	                 0	                 0	                 0	                 0	                 0	                 0	    -0.00035376482	       0.022495799	              0.05	          5798.702	                 0	                 0	                 0	                 0	                 0	                 0	       0.006674789	       0.022495799
	    -0.00026032069	    2.2036022e-005	   -4.7435583e-005	      0.0024750051	                 1	                 1	            -5.625	                 0	                 1	            -1.875	                 2	                 1	         6.2086018	     0.00034731746	         9.5648322	         9.5657128	        0.19353176	      0.0043833724	       -0.39388213	       0.076496409	         27.736942	       0.020407586	         1.8753746	         1.8746255	                 0	                 0	                 0	                 0	                 0	                 0	                 0	                 0	                 0	                 0	             0.096	                 0	                 0	                 0	                 0	                 0	                 0	                 0	                 0	                 0	                 0	                 0	                 0	                 0	    -0.00033845497	       0.020407586	               0.1	          5798.752	                 0	                 0	                 0	                 0	                 0	                 0	       0.016700377	       0.020407586
	    -0.00024183485	    7.9354119e-006	     0.00020991104	       0.002665165	                 1	                 1	            -5.625	                 0	                 1	            -1.875	                 2	                 1	         7.5956496	     0.00052178606	         14.294158	          14.29637	        0.19378762	      0.0055871224	       -0.36624243	       0.076752417	         27.717912	       0.015238362	          1.875449	         1.8745508	                 0	                 0	                 0	                 0	                 0	                 0	                 0	                 0	                 0	                 0	             0.144	                 0	                 0	                 0	                 0	                 0	                 0	                 0	                 0	                 0	                 0	                 0	                 0	                 0	    -0.00022085461	       0.015238362	              0.15	          5798.802	                 0	                 0	                 0	                 0	                 0	                 0	       0.026806642	       0.015238362
	    -0.00021660225	    6.6480723e-006	     0.00036174866	       0.002768524	                 1	                 1	            -5.625	                 0	                 1	            -1.875	                 2	                 1	         8.9817028	     0.00063466902	         19.020435	         19.024163	        0.19407415	      0.0057638799	       -0.33998489	       0.089389091	         27.700257	       0.013393672	         1.8757653	         1.8742341	                 0	                 0	                 0	                 0	                 0	                 0	                 0	                 0	                 0	                 0	             0.192	                 0	                 0	                 0	                 0	                 0	                 0	                 0	                 0	                 0	                 0	                 0	                 0	                 0	   -6.8947622e-005	       0.013393672	               0.2	          5798.852	                 0	                 0	                 0	                 0	                 0	                 0	       0.036296873	       0.013393672
	    -0.00019586519	    1.0865175e-005	     0.00042159208	      0.0027901429	                 1	                 1	            -5.625	                 0	                 1	            -1.875	                 2	                 1	         10.366824	     0.00072563979	         23.743972	         23.749208	        0.19435756	      0.0055418269	        -0.3204669	        0.10226344	         27.683738	       0.013093365	         1.8759343	         1.8740645	                 0	                 0	                 0	                 0	                 0	                 0	                 0	                 0	                 0	                 0	              0.24	                 0	                 0	                 0	                 0	                 0	                 0	                 0	                 0	                 0	                 0	                 0	                 0	                 0	     8.345553e-005	       0.013093365	              0.25	          5798.902	                 0	                 0	                 0	                 0	                 0	                 0	       0.045515606	       0.013093365
	    -0.00017614315	    1.6735223e-005	     0.00041907869	      0.0027518906	                 1	                 1	            -5.625	                 0	                 1	            -1.875	                 2	                 1	         11.751052	     0.00081619223	         28.464935	         28.471604	        0.19462601	      0.0051925097	       -0.30099963	        0.11136813	         27.668195	       0.013058914	         1.8761324	         1.8738656	                 0	                 0	                 0	                 0	                 0	                 0	                 0	                 0	                 0	                 0	             0.288	                 0	                 0	                 0	                 0	                 0	                 0	                 0	                 0	                 0	                 0	                 0	                 0	                 0	     0.00022449861	       0.013058914	               0.3	          5798.952	                 0	                 0	                 0	                 0	                 0	                 0	       0.054616573	       0.013058914
	    -0.00015745633	     2.308386e-005	     0.00037066098	      0.0026720909	                 1	                 1	            -5.625	                 0	                 1	            -1.875	                 2	                 1	         13.134427	     0.00090403345	          33.18346	         33.191464	        0.19487593	      0.0048104275	       -0.28200687	         0.1167448	         27.653613	       0.012935433	         1.8761765	         1.8738214	                 0	                 0	                 0	                 0	                 0	                 0	                 0	                 0	                 0	                 0	             0.336	                 0	                 0	                 0	                 0	                 0	                 0	                 0	                 0	                 0	                 0	                 0	                 0	                 0	     0.00035060947	       0.012935433	              0.35	          5799.002	                 0	                 0	                 0	                 0	                 0	                 0	       0.063514265	       0.012935433
	    -0.00014034176	    2.9716536e-005	     0.00028187927	      0.0025656201	                 1	                 1	            -5.625	                 0	                 1	            -1.875	                 2	                 1	         14.516987	     0.00097491613	         37.899681	         37.908918	        0.19510674	      0.0044314704	       -0.26404905	        0.11910765	         27.639962	       0.012654981	         1.8761155	         1.8738819	                 0	                 0	                 0	                 0	                 0	                 0	                 0	                 0	                 0	                 0	               0.4	                 0	                 0	                 0	                 0	                 0	                 0	                 0	                 0	                 0	                 0	                 0	                 0	                 0	     0.00046118822	       0.012654981	               0.4	          5799.052	                 0	                 0	                 0	                 0	                 0	                 0	       0.072190605	       0.012654981
	    -0.00012627778	    3.6369066e-005	     0.00015696558	      0.0024448204	                 1	                 1	            -5.625	                 0	                 1	            -1.875	                 2	                 1	         15.898773	      0.0010164439	         42.613721	         42.624093	          0.195319	       0.004070134	       -0.24782092	        0.11866825	         27.627157	       0.012230102	         1.8759784	         1.8740187	                 0	                 0	                 0	                 0	                 0	                 0	                 0	                 0	                 0	                 0	             0.448	                 0	                 0	                 0	                 0	                 0	                 0	                 0	                 0	                 0	                 0	                 0	                 0	                 0	     0.00055679879	       0.012230102	              0.45	          5799.102	                 0	                 0	                 0	                 0	                 0	                 0	       0.080702999	       0.012230102
	    -0.00011342839	    4.3074633e-005	    3.7256215e-006	      0.0023200433	                 1	                 1	            -5.625	                 0	                 1	            -1.875	                 2	                 1	          17.27982	      0.0010252339	         47.325696	          47.33711	        0.19551382	      0.0037335436	       -0.23193535	        0.11572268	         27.615155	       0.011682967	         1.8756056	         1.8743929	                 0	                 0	                 0	                 0	                 0	                 0	                 0	                 0	                 0	                 0	             0.496	                 0	                 0	                 0	                 0	                 0	                 0	                 0	                 0	                 0	                 0	                 0	                 0	                 0	      0.0006385151	       0.011682967	               0.5	          5799.152	                 0	                 0	                 0	                 0	                 0	                 0	       0.089051145	       0.011682967
	    -0.00010165988	    4.9703789e-005	    -0.00016848561	      0.0021976948	                 1	                 1	            -5.625	                 0	                 1	            -1.875	                 2	                 1	         18.660164	       0.001004811	         52.035723	         52.048094	        0.19569252	       0.003425524	       -0.21648555	        0.11082128	         27.603936	       0.011041974	         1.8753847	         1.8746137	                 0	                 0	                 0	                 0	                 0	                 0	                 0	                 0	                 0	                 0	             0.544	                 0	                 0	                 0	                 0	                 0	                 0	                 0	                 0	                 0	                 0	                 0	                 0	                 0	     0.00070767273	       0.011041974	              0.55	          5799.202	                 0	                 0	                 0	                 0	                 0	                 0	       0.097211471	       0.011041974
	   -9.0759171e-005	    5.6152703e-005	    -0.00035081364	      0.0020809419	                 1	                 1	            -5.625	                 0	                 1	            -1.875	                 2	                 1	         20.039846	     0.00096221781	         56.743925	         56.757174	        0.19585656	      0.0031466138	       -0.20156663	        0.10456567	         27.593478	       0.010348414	         1.8747165	         1.8752834	                 0	                 0	                 0	                 0	                 0	                 0	                 0	                 0	                 0	                 0	             0.592	                 0	                 0	                 0	                 0	                 0	                 0	                 0	                 0	                 0	                 0	                 0	                 0	                 0	     0.00076571452	       0.010348414	               0.6	          5799.252	                 0	                 0	                 0	                 0	                 0	                 0	         0.1051775	       0.010348414
	   -8.1363616e-005	    6.2288797e-005	    -0.00053575452	      0.0019710701	                 1	                 1	            -5.625	                 0	                 1	            -1.875	                 2	                 1	         21.418901	     0.00090533135	          61.45042	         61.464476	        0.19600738	      0.0028958479	       -0.18789093	       0.097605713	         27.583733	       0.009644821	         1.8743032	         1.8756987	                 0	                 0	                 0	                 0	                 0	                 0	                 0	                 0	                 0	                 0	              0.64	                 0	                 0	                 0	                 0	                 0	                 0	                 0	                 0	                 0	                 0	                 0	                 0	                 0	     0.00081406718	       0.009644821	              0.65	          5799.302	                 0	                 0	                 0	                 0	                 0	                 0	        0.11297328	       0.009644821
	   -7.2334563e-005	    6.8191626e-005	    -0.00071719527	      0.0018685414	                 1	                 1	            -5.625	                 0	                 1	            -1.875	                 2	                 1	         22.797366	     0.00084130392	         66.155322	         66.170122	        0.19614634	      0.0026711603	       -0.17449242	       0.090433909	         27.574665	      0.0089561314	          1.873373	         1.8766313	                 0	                 0	                 0	                 0	                 0	                 0	                 0	                 0	                 0	                 0	             0.688	                 0	                 0	                 0	                 0	                 0	                 0	                 0	                 0	                 0	                 0	                 0	                 0	                 0	     0.00085408147	      0.0089561314	               0.7	          5799.352	                 0	                 0	                 0	                 0	                 0	                 0	        0.12060849	      0.0089561314
	   -6.3475867e-005	    7.3867233e-005	    -0.00089124615	      0.0017726896	                 1	                 1	            -5.625	                 0	                 1	            -1.875	                 2	                 1	         24.175276	     0.00077568565	         70.858744	          70.87423	        0.19627467	      0.0024695549	       -0.16146675	       0.083410726	         27.566259	      0.0082981075	         1.8728346	         1.8771701	                 0	                 0	                 0	                 0	                 0	                 0	                 0	                 0	                 0	                 0	             0.736	                 0	                 0	                 0	                 0	                 0	                 0	                 0	                 0	                 0	                 0	                 0	                 0	                 0	     0.00088697937	      0.0082981075	              0.75	          5799.402	                 0	                 0	                 0	                 0	                 0	                 0	        0.12806615	      0.0082981075
	   -5.4720251e-005	    7.9323615e-005	     -0.0010560701	      0.0016823622	                 1	                 1	            -5.625	                 0	                 1	            -1.875	                 2	                 1	         25.552666	     0.00071220116	         75.560796	         75.576918	        0.19639344	      0.0022880809	       -0.14872838	       0.076714964	         27.558497	      0.0076748281	         1.8716633	         1.8783443	                 0	                 0	                 0	                 0	                 0	                 0	                 0	                 0	                 0	                 0	               0.8	                 0	                 0	                 0	                 0	                 0	                 0	                 0	                 0	                 0	                 0	                 0	                 0	                 0	     0.00091382779	      0.0076748281	               0.8	          5799.452	                 0	                 0	                 0	                 0	                 0	                 0	        0.13534244	      0.0076748281
	   -4.6236836e-005	    8.4567344e-005	     -0.0012113478	      0.0015964002	                 1	                 1	            -5.625	                 0	                 1	            -1.875	                 2	                 1	         26.929569	     0.00065286369	         80.261588	         80.278298	        0.19650358	      0.0021233065	       -0.13664513	       0.070519263	          27.55136	      0.0070895055	           1.87106	         1.8789505	                 0	                 0	                 0	                 0	                 0	                 0	                 0	                 0	                 0	                 0	             0.848	                 0	                 0	                 0	                 0	                 0	                 0	                 0	                 0	                 0	                 0	                 0	                 0	                 0	     0.00093554736	      0.0070895055	              0.85	          5799.502	                 0	                 0	                 0	                 0	                 0	                 0	        0.14243436	      0.0070895055
	   -3.8216327e-005	    8.9602156e-005	     -0.0013573464	      0.0015142071	                 1	                 1	            -5.625	                 0	                 1	            -1.875	                 2	                 1	         28.306018	     0.00059860574	         84.961221	         84.978478	        0.19660584	      0.0019717911	       -0.12511681	       0.064867988	         27.544809	      0.0065473045	         1.8697258	         1.8802881	                 0	                 0	                 0	                 0	                 0	                 0	                 0	                 0	                 0	                 0	             0.896	                 0	                 0	                 0	                 0	                 0	                 0	                 0	                 0	                 0	                 0	                 0	                 0	                 0	      0.0009528726	      0.0065473045	               0.9	          5799.552	                 0	                 0	                 0	                 0	                 0	                 0	        0.14936414	      0.0065473045
	   -3.0199543e-005	    9.4495518e-005	     -0.0014945588	      0.0014354419	                 1	                 1	            -5.625	                 0	                 1	            -1.875	                 2	                 1	         29.682043	     0.00054963554	         89.659794	         89.677559	        0.19670079	      0.0018308147	        -0.1138727	       0.059733132	         27.538829	      0.0060438291	         1.8690074	           1.88101	                 0	                 0	                 0	                 0	                 0	                 0	                 0	                 0	                 0	                 0	             0.944	                 0	                 0	                 0	                 0	                 0	                 0	                 0	                 0	                 0	                 0	                 0	                 0	                 0	     0.00096638848	      0.0060438291	              0.95	          5799.602	                 0	                 0	                 0	                 0	                 0	                 0	        0.15612309	      0.0060438291
	   -2.2239135e-005	    9.9256944e-005	     -0.0016239042	      0.0013596562	                 1	                 1	            -5.625	                 0	                 1	            -1.875	                 2	                 1	         31.057674	     0.00050564418	         94.357402	         94.375638	        0.19678892	      0.0016981369	       -0.10292795	       0.055061362	         27.533403	      0.0055743572	         1.8675604	         1.8824607	                 0	                 0	                 0	                 0	                 0	                 0	                 0	                 0	                 0	                 0	             0.992	                 0	                 0	                 0	                 0	                 0	                 0	                 0	                 0	                 0	                 0	                 0	                 0	                 0	     0.00097655682	      0.0055743572	                 1	          5799.652	                 0	                 0	                 0	                 0	                 0	                 0	        0.16270441	      0.0055743572
	   -1.4377017e-005	     0.00010390041	     -0.0017464965	      0.0012864306	                 1	                 1	            -5.625	                 0	                 1	            -1.875	                 2	                 1	         32.432939	     0.00046602826	         99.054139	         99.072812	        0.19687059	      0.0015720274	      -0.092286758	       0.050787458	         27.528517	      0.0051340663	         1.8668129	         1.8832082	                 0	                 0	                 0	                 0	                 0	                 0	                 0	                 0	                 0	                 0	              1.04	                 0	                 0	                 0	                 0	                 0	                 0	                 0	                 0	                 0	                 0	                 0	                 0	                 0	     0.00098374047	      0.0051340663	              1.05	          5799.702	                 0	                 0	                 0	                 0	                 0	                 0	        0.16910544	      0.0051340663
	   -6.7358245e-006	     0.00010842928	     -0.0018634182	      0.0012154439	                 1	                 1	            -5.625	                 0	                 1	            -1.875	                 2	                 1	         33.807868	     0.00043007172	          103.7501	         103.76917	        0.19694609	      0.0014512224	      -0.082097657	       0.046843502	         27.524155	      0.0047183526	         1.8652698	         1.8847549	                 0	                 0	                 0	                 0	                 0	                 0	                 0	                 0	                 0	                 0	             1.088	                 0	                 0	                 0	                 0	                 0	                 0	                 0	                 0	                 0	                 0	                 0	                 0	                 0	     0.00098822867	      0.0047183526	               1.1	          5799.752	                 0	                 0	                 0	                 0	                 0	                 0	        0.17532528	      0.0047183526
	      3.93274e-007	     0.00011281411	     -0.0019754595	      0.0011466765	                 1	                 1	            -5.625	                 0	                 1	            -1.875	                 2	                 1	         35.182486	     0.00039707185	         108.44536	         108.46481	        0.19701566	      0.0013348968	      -0.072442417	       0.043168425	         27.520287	      0.0043235434	         1.8644972	         1.8855313	                 0	                 0	                 0	                 0	                 0	                 0	                 0	                 0	                 0	                 0	             1.136	                 0	                 0	                 0	                 0	                 0	                 0	                 0	                 0	                 0	                 0	                 0	                 0	                 0	     0.00099025905	      0.0043235434	              1.15	          5799.802	                 0	                 0	                 0	                 0	                 0	                 0	        0.18137826	      0.0043235434
	    7.3737298e-006	     0.00011709829	     -0.0020830698	       0.001080265	                 1	                 1	            -5.625	                 0	                 1	            -1.875	                 2	                 1	          36.55682	     0.00036640956	         113.14001	          113.1598	        0.19707953	      0.0012224877	      -0.063054382	       0.039709131	         27.516895	      0.0039460863	         1.8629085	         1.8871235	                 0	                 0	                 0	                 0	                 0	                 0	                 0	                 0	                 0	                 0	               1.2	                 0	                 0	                 0	                 0	                 0	                 0	                 0	                 0	                 0	                 0	                 0	                 0	                 0	     0.00099003572	      0.0039460863	               1.2	          5799.852	                 0	                 0	                 0	                 0	                 0	                 0	        0.18726186	      0.0039460863
	    1.4178739e-005	     0.00012127871	     -0.0021866713	      0.0010161598	                 1	                 1	            -5.625	                 0	                 1	            -1.875	                 2	                 1	         37.930893	     0.00033757509	         117.83413	         117.85423	        0.19713786	      0.0011135404	      -0.053950919	       0.036424192	         27.513965	      0.0035835048	          1.862084	          1.887952	                 0	                 0	                 0	                 0	                 0	                 0	                 0	                 0	                 0	                 0	             1.248	                 0	                 0	                 0	                 0	                 0	                 0	                 0	                 0	                 0	                 0	                 0	                 0	                 0	     0.00098773794	      0.0035835048	              1.25	          5799.902	                 0	                 0	                 0	                 0	                 0	                 0	        0.19297087	      0.0035835048
	    2.0788071e-005	      0.0001253565	     -0.0022866611	     0.00095422608	                 1	                 1	            -5.625	                 0	                 1	            -1.875	                 2	                 1	         39.304731	     0.00031018179	         122.52779	         122.54818	        0.19719083	      0.0010078749	       -0.04513296	       0.033281447	         27.511484	      0.0032338049	         1.8604735	         1.8895658	                 0	                 0	                 0	                 0	                 0	                 0	                 0	                 0	                 0	                 0	             1.296	                 0	                 0	                 0	                 0	                 0	                 0	                 0	                 0	                 0	                 0	                 0	                 0	                 0	      0.0009835299	      0.0032338049	               1.3	          5799.952	                 0	                 0	                 0	                 0	                 0	                 0	        0.19850371	      0.0032338049
	    2.7188113e-005	     0.00012933146	     -0.0023833628	     0.00089431885	                 1	                 1	            -5.625	                 0	                 1	            -1.875	                 2	                 1	         40.678356	     0.00028394595	         127.22107	         127.24172	        0.19723859	      0.0009052467	      -0.036600377	       0.030256943	         27.509437	      0.0028952094	         1.8596701	         1.8903687	                 0	                 0	                 0	                 0	                 0	                 0	                 0	                 0	                 0	                 0	             1.344	                 0	                 0	                 0	                 0	                 0	                 0	                 0	                 0	                 0	                 0	                 0	                 0	                 0	     0.00097756559	      0.0028952094	              1.35	          5800.002	                 0	                 0	                 0	                 0	                 0	                 0	        0.20385971	      0.0028952094
	    3.3330538e-005	     0.00013320187	     -0.0024770196	     0.00083632206	                 1	                 1	            -5.625	                 0	                 1	            -1.875	                 2	                 1	         42.051791	      0.0002586696	         131.91405	         131.93492	         0.1972813	     0.00080555683	        -0.0284355	       0.027337559	         27.507809	      0.0025675568	          1.858037	         1.8920049	                 0	                 0	                 0	                 0	                 0	                 0	                 0	                 0	                 0	                 0	             1.392	                 0	                 0	                 0	                 0	                 0	                 0	                 0	                 0	                 0	                 0	                 0	                 0	                 0	     0.00096999012	      0.0025675568	               1.4	          5800.052	                 0	                 0	                 0	                 0	                 0	                 0	        0.20903888	      0.0025675568
	    3.9006169e-005	       0.000136936	     -0.0025677077	     0.00078027947	                 1	                 1	            -5.625	                 0	                 1	            -1.875	                 2	                 1	         43.425058	     0.00023422394	         136.60679	         136.62786	         0.1973191	     0.00070869789	      -0.020723898	       0.024506813	         27.506577	      0.0022486345	         1.8572244	          1.892821	                 0	                 0	                 0	                 0	                 0	                 0	                 0	                 0	                 0	                 0	              1.44	                 0	                 0	                 0	                 0	                 0	                 0	                 0	                 0	                 0	                 0	                 0	                 0	                 0	     0.00096094552	      0.0022486345	              1.45	          5800.102	                 0	                 0	                 0	                 0	                 0	                 0	        0.21405121	      0.0022486345
	    4.4488603e-005	     0.00014056108	      -0.002655347	     0.00072633099	                 1	                 1	            -5.625	                 0	                 1	            -1.875	                 2	                 1	         44.798178	     0.00021051718	         141.29936	         141.32061	        0.19735212	     0.00061451114	      -0.013266958	       0.021763019	         27.505724	      0.0019393695	         1.8555994	         1.8944487	                 0	                 0	                 0	                 0	                 0	                 0	                 0	                 0	                 0	                 0	             1.488	                 0	                 0	                 0	                 0	                 0	                 0	                 0	                 0	                 0	                 0	                 0	                 0	                 0	     0.00095056518	      0.0019393695	               1.5	          5800.152	                 0	                 0	                 0	                 0	                 0	                 0	        0.21889663	      0.0019393695
	    4.9768354e-005	     0.00014407105	     -0.0027399203	     0.00067447238	                 1	                 1	            -5.625	                 0	                 1	            -1.875	                 2	                 1	          46.17117	     0.00018749727	         145.99182	         146.01322	         0.1973805	     0.00052295462	      -0.006076319	       0.019094919	         27.505237	      0.0016378404	         1.8547769	         1.8952705	                 0	                 0	                 0	                 0	                 0	                 0	                 0	                 0	                 0	                 0	             1.536	                 0	                 0	                 0	                 0	                 0	                 0	                 0	                 0	                 0	                 0	                 0	                 0	                 0	     0.00093898036	      0.0016378404	              1.55	          5800.202	                 0	                 0	                 0	                 0	                 0	                 0	        0.22357218	      0.0016378404
	    5.4842456e-005	     0.00014746525	     -0.0028214915	     0.00062462294	                 1	                 1	            -5.625	                 0	                 1	            -1.875	                 2	                 1	         47.544054	     0.00016512437	         150.68423	         150.70576	        0.19740437	     0.00043387403	     0.00084875804	       0.016500476	         27.505103	      0.0013439725	         1.8531652	         1.8968885	                 0	                 0	                 0	                 0	                 0	                 0	                 0	                 0	                 0	                 0	               1.6	                 0	                 0	                 0	                 0	                 0	                 0	                 0	                 0	                 0	                 0	                 0	                 0	                 0	     0.00092631565	      0.0013439725	               1.6	          5800.252	                 0	                 0	                 0	                 0	                 0	                 0	        0.22807758	      0.0013439725
	     5.971206e-005	     0.00015074519	     -0.0029001606	     0.00057668227	                 1	                 1	            -5.625	                 0	                 1	            -1.875	                 2	                 1	         48.916848	     0.00014336588	         155.37665	         155.39829	        0.19742384	         0.0003471	      0.0075098441	       0.013978942	          27.50531	      0.0010581769	         1.8523762	         1.8976765	                 0	                 0	                 0	                 0	                 0	                 0	                 0	                 0	                 0	                 0	             1.648	                 0	                 0	                 0	                 0	                 0	                 0	                 0	                 0	                 0	                 0	                 0	                 0	                 0	     0.00091268763	      0.0010581769	              1.65	          5800.302	                 0	                 0	                 0	                 0	                 0	                 0	        0.23241324	      0.0010581769
	    6.4368905e-005	     0.00015391009	     -0.0029760324	     0.00053055923	                 1	                 1	            -5.625	                 0	                 1	            -1.875	                 2	                 1	         50.289571	     0.00012219826	         160.06914	         160.09086	        0.19743903	     0.00026250867	        0.01390858	       0.011520765	         27.505842	     0.00077852133	         1.8507875	         1.8992673	                 0	                 0	                 0	                 0	                 0	                 0	                 0	                 0	                 0	                 0	             1.696	                 0	                 0	                 0	                 0	                 0	                 0	                 0	                 0	                 0	                 0	                 0	                 0	                 0	     0.00089820798	     0.00077852133	               1.7	          5800.352	                 0	                 0	                 0	                 0	                 0	                 0	         0.2365799	     0.00077852133
	    6.8816551e-005	     0.00015696458	     -0.0030492101	     0.00048618327	                 1	                 1	            -5.625	                 0	                 1	            -1.875	                 2	                 1	         51.662239	     0.00010159479	         164.76176	         164.78354	        0.19745004	     0.00017999006	       0.020046678	      0.0091284075	         27.506689	     0.00050607022	         1.8492192	         1.9008372	                 0	                 0	                 0	                 0	                 0	                 0	                 0	                 0	                 0	                 0	             1.744	                 0	                 0	                 0	                 0	                 0	                 0	                 0	                 0	                 0	                 0	                 0	                 0	                 0	     0.00088298009	     0.00050607022	              1.75	          5800.402	                 0	                 0	                 0	                 0	                 0	                 0	         0.2405785	     0.00050607022
	    7.2958914e-005	     0.00015989684	     -0.0031197717	     0.00044351967	                 1	                 1	            -5.625	                 0	                 1	            -1.875	                 2	                 1	         53.034869	    8.1533023e-005	         169.45455	         169.47637	        0.19745698	    9.9429788e-005	       0.025812026	      0.0067954058	         27.507834	     0.00023964451	         1.8484468	         1.9016119	                 0	                 0	                 0	                 0	                 0	                 0	                 0	                 0	                 0	                 0	             1.792	                 0	                 0	                 0	                 0	                 0	                 0	                 0	                 0	                 0	                 0	                 0	                 0	                 0	     0.00086710372	     0.00023964451	               1.8	          5800.452	                 0	                 0	                 0	                 0	                 0	                 0	        0.24441182	     0.00023964451
	    7.6807463e-005	     0.00016270298	      -0.003187699	     0.00040265509	                 1	                 1	            -5.625	                 0	                 1	            -1.875	                 2	                 1	         54.407478	    6.1983589e-005	         174.14756	          174.1694	        0.19745993	    2.0640782e-005	       0.031289216	       0.004516943	         27.509259	   -2.1653691e-005	         1.8469178	          1.903142	                 0	                 0	                 0	                 0	                 0	                 0	                 0	                 0	                 0	                 0	              1.84	                 0	                 0	                 0	                 0	                 0	                 0	                 0	                 0	                 0	                 0	                 0	                 0	                 0	     0.00085067097	   -2.1653691e-005	              1.85	          5800.502	                 0	                 0	                 0	                 0	                 0	                 0	        0.24808741	   -2.1653691e-005
	    8.0469549e-005	     0.00016539563	     -0.0032529627	     0.00036364406	                 1	                 1	            -5.625	                 0	                 1	            -1.875	                 2	                 1	         55.780079	     4.291388e-005	         178.84084	         178.86268	        0.19745899	   -5.6501242e-005	       0.036526345	      0.0022947287	         27.510953	    -0.00027672524	         1.8461576	         1.9039017	                 0	                 0	                 0	                 0	                 0	                 0	                 0	                 0	                 0	                 0	             1.888	                 0	                 0	                 0	                 0	                 0	                 0	                 0	                 0	                 0	                 0	                 0	                 0	                 0	     0.00083376486	    -0.00027672524	               1.9	          5800.552	                 0	                 0	                 0	                 0	                 0	                 0	         0.2516039	    -0.00027672524
	    8.3935433e-005	     0.00016797075	     -0.0033155937	     0.00032645233	                 1	                 1	            -5.625	                 0	                 1	            -1.875	                 2	                 1	         57.152687	    2.4298458e-005	         183.53444	         183.55626	        0.19745423	    -0.00013208793	       0.041523397	     0.00011974896	         27.512902	    -0.00052734922	         1.8446716	         1.9053906	                 0	                 0	                 0	                 0	                 0	                 0	                 0	                 0	                 0	                 0	             1.936	                 0	                 0	                 0	                 0	                 0	                 0	                 0	                 0	                 0	                 0	                 0	                 0	                 0	     0.00081646566	    -0.00052734922	              1.95	          5800.602	                 0	                 0	                 0	                 0	                 0	                 0	        0.25496169	    -0.00052734922
	    8.7206675e-005	     0.00017043067	     -0.0033756731	     0.00029100916	                 1	                 1	            -5.625	                 0	                 1	            -1.875	                 2	                 1	         58.525317	     6.105649e-006	          188.2284	         188.25017	        0.19744573	    -0.00020625942	        0.04628318	     -0.0020087708	         27.515096	    -0.00077328436	         1.8439429	         1.9061187	                 0	                 0	                 0	                 0	                 0	                 0	                 0	                 0	                 0	                 0	                 2	                 0	                 0	                 0	                 0	                 0	                 0	                 0	                 0	                 0	                 0	                 0	                 0	                 0	     0.00079884616	    -0.00077328436	                 2	          5800.652	                 0	                 0	                 0	                 0	                 0	                 0	         0.2581621	    -0.00077328436
	    9.0282765e-005	      0.0001727771	      -0.003433296	     0.00025723725	                 1	                 1	            -5.625	                 0	                 1	            -1.875	                 2	                 1	         59.897981	   -1.1694639e-005	         192.92276	         192.94447	        0.19743356	    -0.00027913131	       0.050808729	     -0.0040947415	         27.517521	     -0.0010149843	         1.8425012	         1.9075609	                 0	                 0	                 0	                 0	                 0	                 0	                 0	                 0	                 0	                 0	             2.048	                 0	                 0	                 0	                 0	                 0	                 0	                 0	                 0	                 0	                 0	                 0	                 0	                 0	     0.00078097354	     -0.0010149843	              2.05	          5800.702	                 0	                 0	                 0	                 0	                 0	                 0	        0.26120684	     -0.0010149843
	     9.316389e-005	     0.00017501249	     -0.0034885573	     0.00022506791	                 1	                 1	            -5.625	                 0	                 1	            -1.875	                 2	                 1	         61.270691	   -2.9130893e-005	         197.61756	         197.63918	        0.19741777	    -0.00035079217	       0.055102562	     -0.0061412876	         27.520168	     -0.0012527335	         1.8417929	         1.9082698	                 0	                 0	                 0	                 0	                 0	                 0	                 0	                 0	                 0	                 0	             2.096	                 0	                 0	                 0	                 0	                 0	                 0	                 0	                 0	                 0	                 0	                 0	                 0	                 0	     0.00076290999	     -0.0012527335	               2.1	          5800.752	                 0	                 0	                 0	                 0	                 0	                 0	        0.26409778	     -0.0012527335
	    9.5850735e-005	     0.00017713896	     -0.0035415481	     0.00019444574	                 1	                 1	            -5.625	                 0	                 1	            -1.875	                 2	                 1	         62.643461	   -4.6230695e-005	         202.31282	         202.33435	        0.19739842	    -0.00042134205	       0.059168214	      -0.008151379	         27.523023	     -0.0014868082	          1.840401	         1.9096616	                 0	                 0	                 0	                 0	                 0	                 0	                 0	                 0	                 0	                 0	             2.144	                 0	                 0	                 0	                 0	                 0	                 0	                 0	                 0	                 0	                 0	                 0	                 0	                 0	     0.00074471307	     -0.0014868082	              2.15	          5800.802	                 0	                 0	                 0	                 0	                 0	                 0	        0.26683699	     -0.0014868082
	     9.834068e-005	     0.00017915731	     -0.0035923507	     0.00016532876	                 1	                 1	            -5.625	                 0	                 1	            -1.875	                 2	                 1	         64.016301	   -6.3020794e-005	          207.0086	            207.03	        0.19737558	    -0.00049086235	       0.063007254	      -0.010130694	         27.526076	     -0.0017184698	         1.8397176	         1.9103452	                 0	                 0	                 0	                 0	                 0	                 0	                 0	                 0	                 0	                 0	             2.192	                 0	                 0	                 0	                 0	                 0	                 0	                 0	                 0	                 0	                 0	                 0	                 0	                 0	     0.00072643642	     -0.0017184698	               2.2	          5800.852	                 0	                 0	                 0	                 0	                 0	                 0	        0.26942667	     -0.0017184698
	     0.00010064234	     0.00018107188	      -0.003641037	     0.00013768563	                 1	                 1	            -5.625	                 0	                 1	            -1.875	                 2	                 1	         65.389222	   -7.9530989e-005	         211.70492	         211.72618	        0.19734928	    -0.00055949608	       0.066627122	      -0.012075959	         27.529316	     -0.0019461578	         1.8383781	         1.9116849	                 0	                 0	                 0	                 0	                 0	                 0	                 0	                 0	                 0	                 0	              2.24	                 0	                 0	                 0	                 0	                 0	                 0	                 0	                 0	                 0	                 0	                 0	                 0	                 0	     0.00070812673	     -0.0019461578	              2.25	          5800.902	                 0	                 0	                 0	                 0	                 0	                 0	        0.27186905	     -0.0019461578
	      0.0001027488	      0.0001828805	     -0.0036876608	     0.00011149064	                 1	                 1	            -5.625	                 0	                 1	            -1.875	                 2	                 1	         66.762234	   -9.5781587e-005	         216.40181	         216.42292	        0.19731958	    -0.00062731754	        0.07002926	      -0.013997779	         27.532731	     -0.0021722028	         1.8377185	         1.9123438	                 0	                 0	                 0	                 0	                 0	                 0	                 0	                 0	                 0	                 0	             2.288	                 0	                 0	                 0	                 0	                 0	                 0	                 0	                 0	                 0	                 0	                 0	                 0	                 0	     0.00068982798	     -0.0021722028	               2.3	          5800.952	                 0	                 0	                 0	                 0	                 0	                 0	        0.27416647	     -0.0021722028
	     0.00010466873	     0.00018458775	     -0.0037322737	    8.6722268e-005	                 1	                 1	            -5.625	                 0	                 1	            -1.875	                 2	                 1	         68.135348	    -0.00011179849	         221.09931	         221.12024	         0.1972865	    -0.00069439929	       0.073209577	      -0.015890452	         27.536311	     -0.0023947145	         1.8364295	         1.9136324	                 0	                 0	                 0	                 0	                 0	                 0	                 0	                 0	                 0	                 0	             2.336	                 0	                 0	                 0	                 0	                 0	                 0	                 0	                 0	                 0	                 0	                 0	                 0	                 0	     0.00067157736	     -0.0023947145	              2.35	          5801.002	                 0	                 0	                 0	                 0	                 0	                 0	        0.27632148	     -0.0023947145
	     0.00010632702	     0.00018618205	     -0.0037748968	     6.338496e-005	                 1	                 1	            -5.625	                 0	                 1	            -1.875	                 2	                 1	         69.508573	    -0.00012759668	         225.79743	         225.81817	        0.19725008	    -0.00076075498	       0.076114193	       -0.01776291	         27.540044	      -0.002615616	         1.8358009	         1.9142597	                 0	                 0	                 0	                 0	                 0	                 0	                 0	                 0	                 0	                 0	               2.4	                 0	                 0	                 0	                 0	                 0	                 0	                 0	                 0	                 0	                 0	                 0	                 0	                 0	     0.00065341315	      -0.002615616	               2.4	          5801.052	                 0	                 0	                 0	                 0	                 0	                 0	        0.27833892	      -0.002615616
	     0.00010780604	     0.00018767148	     -0.0038155156	    4.1516879e-005	                 1	                 1	            -5.625	                 0	                 1	            -1.875	                 2	                 1	         70.881917	    -0.00014320013	         230.49621	         230.51674	        0.19721036	    -0.00082653228	       0.078824882	      -0.019614697	         27.543916	     -0.0028345972	         1.8345634	         1.9154963	                 0	                 0	                 0	                 0	                 0	                 0	                 0	                 0	                 0	                 0	             2.448	                 0	                 0	                 0	                 0	                 0	                 0	                 0	                 0	                 0	                 0	                 0	                 0	                 0	     0.00063536766	     -0.0028345972	              2.45	          5801.102	                 0	                 0	                 0	                 0	                 0	                 0	        0.28022244	     -0.0028345972
