#Name	Car.CFR.tx	Car.CFR.ty	Car.CFR.tz	Car.Pitch	Car.Road.Lane.Act.LaneId	Car.Road.Lane.Act.isRight	Car.Road.Lane.Act.tMidLane	Car.Road.Lane.OnLeft.LaneId	Car.Road.Lane.OnLeft.isRight	Car.Road.Lane.OnLeft.tMidLane	Car.Road.Lane.OnRight.LaneId	Car.Road.Lane.OnRight.isRight	Car.Road.sRoad	Car.Roll	Car.WRL.rot	Car.WRR.rot	Car.Yaw	Car.YawRate	Car.ax	Car.ay	Car.v	DM.Steer.Ang	LatCtrl.DistToLeft	LatCtrl.DistToRight	Sensor.Object.OB01.Obj.T00.RefPnt.alpha	Sensor.Object.OB01.Obj.T00.RefPnt.ds.x	Sensor.Object.OB01.Obj.T00.RefPnt.ds.y	Sensor.Object.OB01.Obj.T00.RefPnt.dv.x	Sensor.Object.OB01.Obj.T00.RefPnt.dv.y	Sensor.Object.OB01.Obj.T00.RefPnt.theta	Sensor.Object.OB01.Obj.T00.dtct	Sensor.Object.OB01.Obj.T01.RefPnt.ds.x	Sensor.Object.OB01.Obj.T01.RefPnt.dv.x	Sensor.Object.OB01.Obj.T01.obsv	Sensor.Object.OB01.TimeStamp	Sensor.Object.OB01.relvTgt.RefPnt.alpha	Sensor.Object.OB01.relvTgt.RefPnt.ds.x	Sensor.Object.OB01.relvTgt.RefPnt.ds.y	Sensor.Object.OB01.relvTgt.RefPnt.ds.z	Sensor.Object.OB01.relvTgt.RefPnt.ds_p	Sensor.Object.OB01.relvTgt.RefPnt.dv.x	Sensor.Object.OB01.relvTgt.RefPnt.dv.y	Sensor.Object.OB01.relvTgt.RefPnt.dv.z	Sensor.Object.OB01.relvTgt.RefPnt.dv_p	Sensor.Object.OB01.relvTgt.RefPnt.r_zyx.x	Sensor.Object.OB01.relvTgt.RefPnt.r_zyx.y	Sensor.Object.OB01.relvTgt.RefPnt.r_zyx.z	Sensor.Object.OB01.relvTgt.RefPnt.theta	Sensor.Road.RD00.Path.DevAng	Steer.WhlAng	Time	Time.Global	Traffic.T00.DetectLevel	Traffic.T00.Lane.Act.LaneId	Traffic.T00.LongAcc	Traffic.T00.LongVel	Traffic.T00.tRoad	VC.Brake	VC.Gas	VC.Steer.Ang
#Unit	m	m	m	rad	-	-	m	-	-	m	-	-	m	rad	rad	rad	rad	rad/s	m/s^2	m/s^2	m/s	rad	m	m	rad	m	m	m/s	m/s	rad	-	m	m/s	-	s	rad	m	m	m	m	m/s	m/s	m/s	m/s	rad	rad	rad	rad	rad	rad	s	s	-	-	m/s^2	m/s	m	-	-	rad
#nStates	0	0	0	0	0	0	0	0	0	0	0	0	0	0	0	0	0	0	0	0	0	0	0	0	0	0	0	0	0	0	2	0	0	2	0	0	0	0	0	0	0	0	0	0	0	0	0	0	0	0	0	0	3	0	0	0	0	0	0	0
	   -7.3544723e-005	    2.4036255e-005	    -0.00028290603	      0.0021274189	                 0	                 1	            -1.875	                 0	                 0	             1.875	                 1	                 1	         3.4324647	     0.00011645696	       0.094804712	       0.094804712	        0.19334903	   -1.2456865e-007	       -0.14126571	     0.00077178267	         27.777778	                 0	                 0	                 0	                 0	                 0	                 0	                 0	                 0	                 0	                 0	                 0	                 0	                 0	                 0	                 0	                 0	                 0	                 0	                 0	                 0	                 0	                 0	                 0	                 0	                 0	                 0	                 0	    -0.00023382922	                 0	                 0	          8306.829	                 0	                 0	                 0	                 0	                 0	                 0	                 0	                 0
	    -0.00028969172	     2.816191e-005	    -0.00030587405	      0.0022436779	                 0	                 1	            -1.875	                 0	                 0	             1.875	                 1	                 1	         4.8224143	      0.0001554092	         4.8319249	         4.8320286	        0.19337457	      0.0016398749	       -0.42217036	       0.082661675	         27.757373	       0.022556854	                 0	                 0	                 0	                 0	                 0	                 0	                 0	                 0	                 0	                 0	                 0	                 0	             0.048	                 0	                 0	                 0	                 0	                 0	                 0	                 0	                 0	                 0	                 0	                 0	                 0	                 0	    -0.00035393343	       0.022556854	              0.05	          8306.879	                 0	                 0	                 0	                 0	                 0	                 0	      0.0066747889	       0.022556854
	    -0.00025991652	    2.2231229e-005	   -4.7052727e-005	      0.0024750062	                 0	                 1	            -1.875	                 0	                 0	             1.875	                 1	                 1	         6.2110878	     0.00034818731	          9.564831	         9.5657139	        0.19353224	      0.0043989162	       -0.39388274	       0.076873891	         27.736942	       0.020514039	                 0	                 0	                 0	                 0	                 0	                 0	                 0	                 0	                 0	                 0	                 0	                 0	             0.096	                 0	                 0	                 0	                 0	                 0	                 0	                 0	                 0	                 0	                 0	                 0	                 0	                 0	    -0.00033822182	       0.020514039	               0.1	          8306.929	                 0	                 0	                 0	                 0	                 0	                 0	        0.01670039	       0.020514039
	    -0.00024152195	    8.0518928e-006	     0.00021107069	      0.0026651713	                 0	                 1	            -1.875	                 0	                 0	             1.875	                 1	                 1	         7.5986543	      0.0005237317	         14.294154	         14.296374	        0.19378914	        0.00561149	       -0.36624264	         0.0770894	         27.717912	       0.015315821	                 0	                 0	                 0	                 0	                 0	                 0	                 0	                 0	                 0	                 0	                 0	                 0	             0.144	                 0	                 0	                 0	                 0	                 0	                 0	                 0	                 0	                 0	                 0	                 0	                 0	                 0	    -0.00021962895	       0.015315821	              0.15	          8306.979	                 0	                 0	                 0	                 0	                 0	                 0	       0.026806666	       0.015315821
	    -0.00021635856	    6.7172062e-006	      0.0003634789	      0.0027685383	                 0	                 1	            -1.875	                 0	                 0	             1.875	                 1	                 1	         8.9852125	     0.00063732074	         19.020427	          19.02417	        0.19407695	      0.0057898827	       -0.33998513	       0.089746676	         27.700257	       0.013449735	                 0	                 0	                 0	                 0	                 0	                 0	                 0	                 0	                 0	                 0	                 0	                 0	             0.192	                 0	                 0	                 0	                 0	                 0	                 0	                 0	                 0	                 0	                 0	                 0	                 0	                 0	   -6.6480597e-005	       0.013449735	               0.2	          8307.029	                 0	                 0	                 0	                 0	                 0	                 0	       0.036296905	       0.013449735
	    -0.00019565241	    1.0928623e-005	     0.00042364747	      0.0027901637	                 0	                 1	            -1.875	                 0	                 0	             1.875	                 1	                 1	         10.370825	     0.00072869863	         23.743961	         23.749219	        0.19436163	      0.0055661223	       -0.32046746	         0.1026696	         27.683738	       0.013141458	                 0	                 0	                 0	                 0	                 0	                 0	                 0	                 0	                 0	                 0	                 0	                 0	              0.24	                 0	                 0	                 0	                 0	                 0	                 0	                 0	                 0	                 0	                 0	                 0	                 0	                 0	    8.7150071e-005	       0.013141458	              0.25	          8307.079	                 0	                 0	                 0	                 0	                 0	                 0	       0.045515654	       0.013141458
	    -0.00017594588	    1.6801413e-005	     0.00042135943	      0.0027519091	                 0	                 1	            -1.875	                 0	                 0	             1.875	                 1	                 1	         11.755531	     0.00081956568	         28.464921	         28.471617	        0.19463122	      0.0052140174	       -0.30100008	        0.11180777	         27.668195	       0.013103757	                 0	                 0	                 0	                 0	                 0	                 0	                 0	                 0	                 0	                 0	                 0	                 0	             0.288	                 0	                 0	                 0	                 0	                 0	                 0	                 0	                 0	                 0	                 0	                 0	                 0	                 0	     0.00022930568	       0.013103757	               0.3	          8307.129	                 0	                 0	                 0	                 0	                 0	                 0	       0.054616656	       0.013103757
	    -0.00015727125	    2.3148726e-005	     0.00037313329	      0.0026720998	                 0	                 1	            -1.875	                 0	                 0	             1.875	                 1	                 1	         13.139369	     0.00090767602	         33.183444	          33.19148	        0.19488214	      0.0048289105	       -0.28200698	        0.11719631	         27.653612	       0.012977144	                 0	                 0	                 0	                 0	                 0	                 0	                 0	                 0	                 0	                 0	                 0	                 0	             0.336	                 0	                 0	                 0	                 0	                 0	                 0	                 0	                 0	                 0	                 0	                 0	                 0	                 0	     0.00035638539	       0.012977144	              0.35	          8307.179	                 0	                 0	                 0	                 0	                 0	                 0	       0.063514375	       0.012977144
	    -0.00014017025	    2.9775513e-005	     0.00028448652	      0.0025656241	                 0	                 1	            -1.875	                 0	                 0	             1.875	                 1	                 1	         14.522381	     0.00097874037	         37.899662	         37.908936	         0.1951138	       0.004446984	       -0.26404905	        0.11955099	         27.639962	       0.012692685	                 0	                 0	                 0	                 0	                 0	                 0	                 0	                 0	                 0	                 0	                 0	                 0	               0.4	                 0	                 0	                 0	                 0	                 0	                 0	                 0	                 0	                 0	                 0	                 0	                 0	                 0	     0.00046778611	       0.012692685	               0.4	          8307.229	                 0	                 0	                 0	                 0	                 0	                 0	       0.072190734	       0.012692685
	    -0.00012612061	    3.6420075e-005	     0.00015961634	      0.0024448246	                 0	                 1	            -1.875	                 0	                 0	             1.875	                 1	                 1	         15.904603	      0.0010203076	           42.6137	         42.624114	        0.19532677	      0.0040828415	       -0.24782093	        0.11908928	         27.627157	       0.012263399	                 0	                 0	                 0	                 0	                 0	                 0	                 0	                 0	                 0	                 0	                 0	                 0	             0.448	                 0	                 0	                 0	                 0	                 0	                 0	                 0	                 0	                 0	                 0	                 0	                 0	                 0	     0.00056407719	       0.012263399	              0.45	          8307.279	                 0	                 0	                 0	                 0	                 0	                 0	       0.080703149	       0.012263399
	     -0.0001132891	    4.3115383e-005	    6.3092513e-006	      0.0023200495	                 0	                 1	            -1.875	                 0	                 0	             1.875	                 1	                 1	         17.286073	       0.001028973	         47.325673	         47.337132	        0.19552215	      0.0037436281	       -0.23193533	        0.11610496	         27.615155	       0.011711041	                 0	                 0	                 0	                 0	                 0	                 0	                 0	                 0	                 0	                 0	                 0	                 0	             0.496	                 0	                 0	                 0	                 0	                 0	                 0	                 0	                 0	                 0	                 0	                 0	                 0	                 0	     0.00064634201	       0.011711041	               0.5	          8307.329	                 0	                 0	                 0	                 0	                 0	                 0	       0.089051314	       0.011711041
	    -0.00010153952	    4.9735473e-005	    -0.00016607732	      0.0021977025	                 0	                 1	            -1.875	                 0	                 0	             1.875	                 1	                 1	         18.666829	      0.0010082727	           52.0357	         52.048117	        0.19570129	      0.0034331949	       -0.21648548	        0.11116028	         27.603935	       0.011065031	                 0	                 0	                 0	                 0	                 0	                 0	                 0	                 0	                 0	                 0	                 0	                 0	             0.544	                 0	                 0	                 0	                 0	                 0	                 0	                 0	                 0	                 0	                 0	                 0	                 0	                 0	     0.00071592489	       0.011065031	              0.55	          8307.379	                 0	                 0	                 0	                 0	                 0	                 0	       0.097211655	       0.011065031
	   -9.0661373e-005	    5.6175563e-005	    -0.00034866242	      0.0020809497	                 0	                 1	            -1.875	                 0	                 0	             1.875	                 1	                 1	         20.046907	     0.00096529098	           56.7439	         56.757197	        0.19586566	      0.0031521526	       -0.20156651	        0.10485244	         27.593478	       0.010365994	                 0	                 0	                 0	                 0	                 0	                 0	                 0	                 0	                 0	                 0	                 0	                 0	             0.592	                 0	                 0	                 0	                 0	                 0	                 0	                 0	                 0	                 0	                 0	                 0	                 0	                 0	     0.00077428167	       0.010365994	               0.6	          8307.429	                 0	                 0	                 0	                 0	                 0	                 0	        0.10517769	       0.010365994
	   -8.1290256e-005	    6.2302237e-005	    -0.00053391346	      0.0019710768	                 0	                 1	            -1.875	                 0	                 0	             1.875	                 1	                 1	         21.426345	     0.00090794291	         61.450395	           61.4645	        0.19601671	      0.0028994265	       -0.18789074	       0.097836521	         27.583733	      0.0096566829	                 0	                 0	                 0	                 0	                 0	                 0	                 0	                 0	                 0	                 0	                 0	                 0	              0.64	                 0	                 0	                 0	                 0	                 0	                 0	                 0	                 0	                 0	                 0	                 0	                 0	                 0	     0.00082285028	      0.0096566829	              0.65	          8307.479	                 0	                 0	                 0	                 0	                 0	                 0	        0.11297348	      0.0096566829
	   -7.2284976e-005	    6.8197487e-005	    -0.00071569288	      0.0018685462	                 0	                 1	            -1.875	                 0	                 0	             1.875	                 1	                 1	         22.805181	     0.00084341862	         66.155297	         66.170146	        0.19615581	      0.0026729953	       -0.17449217	       0.090609606	         27.574665	      0.0089627808	                 0	                 0	                 0	                 0	                 0	                 0	                 0	                 0	                 0	                 0	                 0	                 0	             0.688	                 0	                 0	                 0	                 0	                 0	                 0	                 0	                 0	                 0	                 0	                 0	                 0	                 0	     0.00086299084	      0.0089627808	               0.7	          8307.529	                 0	                 0	                 0	                 0	                 0	                 0	         0.1206087	      0.0089627808
	   -6.3449644e-005	    7.3866194e-005	    -0.00089008558	      0.0017726922	                 0	                 1	            -1.875	                 0	                 0	             1.875	                 1	                 1	         24.183448	     0.00077730223	         70.858718	         70.874255	        0.19628418	      0.0024698421	       -0.16146646	       0.083533009	         27.566259	      0.0082997969	                 0	                 0	                 0	                 0	                 0	                 0	                 0	                 0	                 0	                 0	                 0	                 0	             0.736	                 0	                 0	                 0	                 0	                 0	                 0	                 0	                 0	                 0	                 0	                 0	                 0	                 0	      0.0008959357	      0.0082997969	              0.75	          8307.579	                 0	                 0	                 0	                 0	                 0	                 0	        0.12806636	      0.0082997969
	   -5.4715954e-005	     7.931651e-005	     -0.0010552373	      0.0016823626	                 0	                 1	            -1.875	                 0	                 0	             1.875	                 1	                 1	         25.561181	     0.00071334212	          75.56077	         75.576942	        0.19640293	      0.0022869573	       -0.14872805	        0.07678765	         27.558497	      0.0076719713	                 0	                 0	                 0	                 0	                 0	                 0	                 0	                 0	                 0	                 0	                 0	                 0	               0.8	                 0	                 0	                 0	                 0	                 0	                 0	                 0	                 0	                 0	                 0	                 0	                 0	                 0	     0.00092275992	      0.0076719713	               0.8	          8307.629	                 0	                 0	                 0	                 0	                 0	                 0	        0.13534264	      0.0076719713
	   -4.6254034e-005	    8.4554445e-005	     -0.0012108184	      0.0015963988	                 0	                 1	            -1.875	                 0	                 0	             1.875	                 1	                 1	         26.938415	     0.00065356407	         80.261562	         80.278322	        0.19651299	      0.0021209352	       -0.13664479	       0.070544741	          27.55136	      0.0070822037	                 0	                 0	                 0	                 0	                 0	                 0	                 0	                 0	                 0	                 0	                 0	                 0	             0.848	                 0	                 0	                 0	                 0	                 0	                 0	                 0	                 0	                 0	                 0	                 0	                 0	                 0	     0.00094439161	      0.0070822037	              0.85	          8307.679	                 0	                 0	                 0	                 0	                 0	                 0	        0.14243456	      0.0070822037
	   -3.8250772e-005	    8.9585088e-005	     -0.0013570948	      0.0015142045	                 0	                 1	            -1.875	                 0	                 0	             1.875	                 1	                 1	         28.315182	     0.00059890227	         84.961196	         84.978502	        0.19661509	      0.0019683053	       -0.12511645	       0.064853111	         27.544809	       0.006536563	                 0	                 0	                 0	                 0	                 0	                 0	                 0	                 0	                 0	                 0	                 0	                 0	             0.896	                 0	                 0	                 0	                 0	                 0	                 0	                 0	                 0	                 0	                 0	                 0	                 0	                 0	     0.00096157199	       0.006536563	               0.9	          8307.729	                 0	                 0	                 0	                 0	                 0	                 0	        0.14936434	       0.006536563
	   -3.0253482e-005	    9.4473362e-005	     -0.0014945561	      0.0014354385	                 0	                 1	            -1.875	                 0	                 0	             1.875	                 1	                 1	         29.691511	     0.00054956937	         89.659769	         89.677582	        0.19670985	      0.0018263338	       -0.11387233	       0.059678488	         27.538828	      0.0060290239	                 0	                 0	                 0	                 0	                 0	                 0	                 0	                 0	                 0	                 0	                 0	                 0	             0.944	                 0	                 0	                 0	                 0	                 0	                 0	                 0	                 0	                 0	                 0	                 0	                 0	                 0	     0.00097489356	      0.0060290239	              0.95	          8307.779	                 0	                 0	                 0	                 0	                 0	                 0	        0.15612329	      0.0060290239
	   -2.2308184e-005	    9.9231172e-005	     -0.0016241259	      0.0013596525	                 0	                 1	            -1.875	                 0	                 0	             1.875	                 1	                 1	         31.067433	     0.00050525007	         94.357378	         94.375661	        0.19679772	      0.0016927059	       -0.10292758	       0.054973594	         27.533403	      0.0055564957	                 0	                 0	                 0	                 0	                 0	                 0	                 0	                 0	                 0	                 0	                 0	                 0	             0.992	                 0	                 0	                 0	                 0	                 0	                 0	                 0	                 0	                 0	                 0	                 0	                 0	                 0	     0.00098482074	      0.0055564957	                 1	          8307.829	                 0	                 0	                 0	                 0	                 0	                 0	         0.1627046	      0.0055564957
	   -1.4461318e-005	      0.0001038712	     -0.0017469181	      0.0012864268	                 0	                 1	            -1.875	                 0	                 0	             1.875	                 1	                 1	         32.442977	     0.00046534244	         99.054116	         99.072834	         0.1968791	      0.0015657496	      -0.092286391	       0.050668466	         27.528517	      0.0051130887	                 0	                 0	                 0	                 0	                 0	                 0	                 0	                 0	                 0	                 0	                 0	                 0	              1.04	                 0	                 0	                 0	                 0	                 0	                 0	                 0	                 0	                 0	                 0	                 0	                 0	                 0	     0.00099172091	      0.0051130887	              1.05	          8307.879	                 0	                 0	                 0	                 0	                 0	                 0	        0.16910562	      0.0051130887
	   -6.8336722e-006	     0.00010839705	     -0.0018640177	      0.0012154403	                 0	                 1	            -1.875	                 0	                 0	             1.875	                 1	                 1	         33.818171	     0.00042912544	         103.75007	         103.76919	        0.19695426	      0.0014441504	      -0.082097304	       0.046696824	         27.524155	      0.0046946017	                 0	                 0	                 0	                 0	                 0	                 0	                 0	                 0	                 0	                 0	                 0	                 0	             1.088	                 0	                 0	                 0	                 0	                 0	                 0	                 0	                 0	                 0	                 0	                 0	                 0	                 0	     0.00099588657	      0.0046946017	               1.1	          8307.929	                 0	                 0	                 0	                 0	                 0	                 0	        0.17532546	      0.0046946017
	    2.8472701e-007	     0.00011277989	     -0.0019762185	      0.0011466733	                 0	                 1	            -1.875	                 0	                 0	             1.875	                 1	                 1	         35.193041	     0.00039589262	         108.44534	         108.46483	        0.19702347	       0.001327105	      -0.072442067	       0.042998204	         27.520287	      0.0042976748	                 0	                 0	                 0	                 0	                 0	                 0	                 0	                 0	                 0	                 0	                 0	                 0	             1.136	                 0	                 0	                 0	                 0	                 0	                 0	                 0	                 0	                 0	                 0	                 0	                 0	                 0	     0.00099755822	      0.0042976748	              1.15	          8307.979	                 0	                 0	                 0	                 0	                 0	                 0	        0.18137844	      0.0042976748
	    7.2548172e-006	     0.00011706158	     -0.0020839704	       0.001080262	                 0	                 1	            -1.875	                 0	                 0	             1.875	                 1	                 1	         36.567614	     0.00036502254	         113.13999	         113.15982	        0.19708693	      0.0012140367	      -0.063054036	       0.039516604	         27.516895	      0.0039180592	                 0	                 0	                 0	                 0	                 0	                 0	                 0	                 0	                 0	                 0	                 0	                 0	               1.2	                 0	                 0	                 0	                 0	                 0	                 0	                 0	                 0	                 0	                 0	                 0	                 0	                 0	     0.00099694395	      0.0039180592	               1.2	          8308.029	                 0	                 0	                 0	                 0	                 0	                 0	        0.18726203	      0.0039180592
	    1.4049315e-005	     0.00012124023	     -0.0021876988	      0.0010161572	                 0	                 1	            -1.875	                 0	                 0	             1.875	                 1	                 1	         37.941914	     0.00033600326	         117.83411	         117.85425	        0.19714482	      0.0011045313	       -0.05395058	       0.036210988	         27.513965	      0.0035533424	                 0	                 0	                 0	                 0	                 0	                 0	                 0	                 0	                 0	                 0	                 0	                 0	             1.248	                 0	                 0	                 0	                 0	                 0	                 0	                 0	                 0	                 0	                 0	                 0	                 0	                 0	     0.00099422676	      0.0035533424	              1.25	          8308.079	                 0	                 0	                 0	                 0	                 0	                 0	        0.19297103	      0.0035533424
	    2.0648898e-005	     0.00012531533	     -0.0022878033	     0.00095422373	                 0	                 1	            -1.875	                 0	                 0	             1.875	                 1	                 1	         39.315964	     0.00030843978	         122.52777	         122.54819	        0.19719733	     0.00099826805	      -0.045132628	       0.033049095	         27.511484	      0.0032015106	                 0	                 0	                 0	                 0	                 0	                 0	                 0	                 0	                 0	                 0	                 0	                 0	             1.296	                 0	                 0	                 0	                 0	                 0	                 0	                 0	                 0	                 0	                 0	                 0	                 0	                 0	     0.00098957207	      0.0032015106	               1.3	          8308.129	                 0	                 0	                 0	                 0	                 0	                 0	        0.19850387	      0.0032015106
	    2.7043049e-005	     0.00012929021	     -0.0023846124	     0.00089431673	                 0	                 1	            -1.875	                 0	                 0	             1.875	                 1	                 1	          40.68979	     0.00028204804	         127.22106	         127.24173	         0.1972446	     0.00089514532	      -0.036600055	       0.030010085	         27.509437	      0.0028618656	                 0	                 0	                 0	                 0	                 0	                 0	                 0	                 0	                 0	                 0	                 0	                 0	             1.344	                 0	                 0	                 0	                 0	                 0	                 0	                 0	                 0	                 0	                 0	                 0	                 0	                 0	     0.00098313478	      0.0028618656	              1.35	          8308.179	                 0	                 0	                 0	                 0	                 0	                 0	        0.20385986	      0.0028618656
	    3.3176279e-005	     0.00013315827	     -0.0024783637	     0.00083632014	                 0	                 1	            -1.875	                 0	                 0	             1.875	                 1	                 1	         42.063412	     0.00025663255	         131.91403	         131.93494	        0.19728679	     0.00079500274	      -0.028435194	       0.027073438	         27.507809	      0.0025321946	                 0	                 0	                 0	                 0	                 0	                 0	                 0	                 0	                 0	                 0	                 0	                 0	             1.392	                 0	                 0	                 0	                 0	                 0	                 0	                 0	                 0	                 0	                 0	                 0	                 0	                 0	     0.00097506505	      0.0025321946	               1.4	          8308.229	                 0	                 0	                 0	                 0	                 0	                 0	        0.20903902	      0.0025321946
	    3.8847644e-005	     0.00013689282	     -0.0025691395	     0.00078027775	                 0	                 1	            -1.875	                 0	                 0	             1.875	                 1	                 1	         43.436854	     0.00023206007	         136.60678	         136.62788	        0.19732405	      0.0006977723	      -0.020723603	       0.024231432	         27.506577	      0.0022125766	                 0	                 0	                 0	                 0	                 0	                 0	                 0	                 0	                 0	                 0	                 0	                 0	              1.44	                 0	                 0	                 0	                 0	                 0	                 0	                 0	                 0	                 0	                 0	                 0	                 0	                 0	     0.00096550599	      0.0022125766	              1.45	          8308.279	                 0	                 0	                 0	                 0	                 0	                 0	        0.21405135	      0.0022125766
	    4.4323129e-005	     0.00014051619	     -0.0026568555	     0.00072632944	                 0	                 1	            -1.875	                 0	                 0	             1.875	                 1	                 1	         44.810135	     0.00020824036	         141.29934	         141.32062	        0.19735651	     0.00060323773	      -0.013266672	       0.021474137	         27.505724	      0.0019017917	                 0	                 0	                 0	                 0	                 0	                 0	                 0	                 0	                 0	                 0	                 0	                 0	             1.488	                 0	                 0	                 0	                 0	                 0	                 0	                 0	                 0	                 0	                 0	                 0	                 0	                 0	     0.00095459519	      0.0019017917	               1.5	          8308.329	                 0	                 0	                 0	                 0	                 0	                 0	        0.21889676	      0.0019017917
	    4.9598205e-005	     0.00014402606	     -0.0027414997	     0.00067447101	                 0	                 1	            -1.875	                 0	                 0	             1.875	                 1	                 1	         46.183276	     0.00018511729	          145.9918	         146.01323	        0.19738432	      0.0005113779	     -0.0060760456	       0.018795922	         27.505237	      0.0015993856	                 0	                 0	                 0	                 0	                 0	                 0	                 0	                 0	                 0	                 0	                 0	                 0	             1.536	                 0	                 0	                 0	                 0	                 0	                 0	                 0	                 0	                 0	                 0	                 0	                 0	                 0	     0.00094246432	      0.0015993856	              1.55	          8308.379	                 0	                 0	                 0	                 0	                 0	                 0	         0.2235723	      0.0015993856
	    5.4669202e-005	     0.00014741969	     -0.0028231347	     0.00062462175	                 0	                 1	            -1.875	                 0	                 0	             1.875	                 1	                 1	         47.556296	     0.00016265036	         150.68422	         150.70577	         0.1974076	     0.00042199646	     0.00084902005	       0.016192748	         27.505103	      0.0013048907	                 0	                 0	                 0	                 0	                 0	                 0	                 0	                 0	                 0	                 0	                 0	                 0	               1.6	                 0	                 0	                 0	                 0	                 0	                 0	                 0	                 0	                 0	                 0	                 0	                 0	                 0	     0.00092923951	      0.0013048907	               1.6	          8308.429	                 0	                 0	                 0	                 0	                 0	                 0	         0.2280777	      0.0013048907
	    5.9534166e-005	     0.00015069943	     -0.0029018601	     0.00057668127	                 0	                 1	            -1.875	                 0	                 0	             1.875	                 1	                 1	         48.929213	     0.00014081099	         155.37664	         155.39829	        0.19742647	     0.00033502675	      0.0075100937	       0.013661952	          27.50531	      0.0010181928	                 0	                 0	                 0	                 0	                 0	                 0	                 0	                 0	                 0	                 0	                 0	                 0	             1.648	                 0	                 0	                 0	                 0	                 0	                 0	                 0	                 0	                 0	                 0	                 0	                 0	                 0	     0.00091504046	      0.0010181928	              1.65	          8308.479	                 0	                 0	                 0	                 0	                 0	                 0	        0.23241335	      0.0010181928
	    6.4188978e-005	     0.00015386424	     -0.0029777809	     0.00053055843	                 0	                 1	            -1.875	                 0	                 0	             1.875	                 1	                 1	         50.302046	     0.00011957162	         160.06913	         160.09087	        0.19744105	     0.00025023888	       0.013908817	       0.011197481	         27.505843	     0.00073816504	                 0	                 0	                 0	                 0	                 0	                 0	                 0	                 0	                 0	                 0	                 0	                 0	             1.696	                 0	                 0	                 0	                 0	                 0	                 0	                 0	                 0	                 0	                 0	                 0	                 0	                 0	      0.0008999805	     0.00073816504	               1.7	          8308.529	                 0	                 0	                 0	                 0	                 0	                 0	           0.23658	     0.00073816504
	    6.8633467e-005	     0.00015691881	     -0.0030510006	     0.00048618266	                 0	                 1	            -1.875	                 0	                 0	             1.875	                 1	                 1	         51.674811	    9.8908093e-005	         164.76175	         164.78354	        0.19745145	      0.0001676047	       0.020046902	      0.0087985653	         27.506689	     0.00046512698	                 0	                 0	                 0	                 0	                 0	                 0	                 0	                 0	                 0	                 0	                 0	                 0	             1.744	                 0	                 0	                 0	                 0	                 0	                 0	                 0	                 0	                 0	                 0	                 0	                 0	                 0	     0.00088416562	     0.00046512698	              1.75	          8308.579	                 0	                 0	                 0	                 0	                 0	                 0	         0.2405786	     0.00046512698
	    7.2773178e-005	     0.00015985085	     -0.0031215974	     0.00044351927	                 0	                 1	            -1.875	                 0	                 0	             1.875	                 1	                 1	         53.047526	     7.879473e-005	         169.45454	         169.47637	        0.19745777	    8.6926345e-005	       0.025812234	      0.0064601922	         27.507834	     0.00019817127	                 0	                 0	                 0	                 0	                 0	                 0	                 0	                 0	                 0	                 0	                 0	                 0	             1.792	                 0	                 0	                 0	                 0	                 0	                 0	                 0	                 0	                 0	                 0	                 0	                 0	                 0	     0.00086769699	     0.00019817127	               1.8	          8308.629	                 0	                 0	                 0	                 0	                 0	                 0	        0.24441192	     0.00019817127
	    7.6621049e-005	     0.00016265739	     -0.0031895559	     0.00040265491	                 0	                 1	            -1.875	                 0	                 0	             1.875	                 1	                 1	         54.420206	     5.920014e-005	         174.14756	          174.1694	        0.19746009	    8.0296288e-006	       0.031289417	      0.0041785042	          27.50926	   -6.3189738e-005	                 0	                 0	                 0	                 0	                 0	                 0	                 0	                 0	                 0	                 0	                 0	                 0	              1.84	                 0	                 0	                 0	                 0	                 0	                 0	                 0	                 0	                 0	                 0	                 0	                 0	                 0	     0.00085066664	   -6.3189738e-005	              1.85	          8308.679	                 0	                 0	                 0	                 0	                 0	                 0	        0.24808749	   -6.3189738e-005
	    8.0281165e-005	     0.00016535013	     -0.0032548446	     0.00036364403	                 0	                 1	            -1.875	                 0	                 0	             1.875	                 1	                 1	         55.792866	    4.0094753e-005	         178.84084	         178.86268	        0.19745852	   -6.9164603e-005	        0.03652653	       0.001952269	         27.510953	    -0.00031863181	                 0	                 0	                 0	                 0	                 0	                 0	                 0	                 0	                 0	                 0	                 0	                 0	             1.888	                 0	                 0	                 0	                 0	                 0	                 0	                 0	                 0	                 0	                 0	                 0	                 0	                 0	     0.00083315985	    -0.00031863181	               1.9	          8308.729	                 0	                 0	                 0	                 0	                 0	                 0	        0.25160399	    -0.00031863181
	    8.3745019e-005	     0.00016792505	     -0.0033174957	     0.00032645248	                 0	                 1	            -1.875	                 0	                 0	             1.875	                 1	                 1	         57.165521	    2.1449897e-005	         183.53445	         183.55625	        0.19745313	     -0.0001448127	       0.041523568	    -0.00022624057	         27.512902	    -0.00056968344	                 0	                 0	                 0	                 0	                 0	                 0	                 0	                 0	                 0	                 0	                 0	                 0	             1.936	                 0	                 0	                 0	                 0	                 0	                 0	                 0	                 0	                 0	                 0	                 0	                 0	                 0	     0.00081525751	    -0.00056968344	              1.95	          8308.779	                 0	                 0	                 0	                 0	                 0	                 0	        0.25496176	    -0.00056968344
	    8.7017957e-005	     0.00017038626	     -0.0033775926	     0.00029100951	                 0	                 1	            -1.875	                 0	                 0	             1.875	                 1	                 1	         58.538184	    3.2327489e-006	         188.22841	         188.25017	        0.19744399	    -0.00021901338	       0.046283338	     -0.0023545489	         27.515096	    -0.00081510986	                 0	                 0	                 0	                 0	                 0	                 0	                 0	                 0	                 0	                 0	                 0	                 0	                 2	                 0	                 0	                 0	                 0	                 0	                 0	                 0	                 0	                 0	                 0	                 0	                 0	                 0	     0.00079703227	    -0.00081510986	                 2	          8308.829	                 0	                 0	                 0	                 0	                 0	                 0	        0.25816217	    -0.00081510986
	    9.0095229e-005	     0.00017273394	     -0.0034352257	     0.00025723782	                 0	                 1	            -1.875	                 0	                 0	             1.875	                 1	                 1	         59.910868	   -1.4579803e-005	         192.92277	         192.94446	        0.19743117	    -0.00029179894	       0.050808876	     -0.0044405541	         27.517522	     -0.0010564073	                 0	                 0	                 0	                 0	                 0	                 0	                 0	                 0	                 0	                 0	                 0	                 0	             2.048	                 0	                 0	                 0	                 0	                 0	                 0	                 0	                 0	                 0	                 0	                 0	                 0	                 0	     0.00077855591	     -0.0010564073	              2.05	          8308.879	                 0	                 0	                 0	                 0	                 0	                 0	        0.26120691	     -0.0010564073
	    9.2977221e-005	     0.00017496974	     -0.0034904901	     0.00022506865	                 0	                 1	            -1.875	                 0	                 0	             1.875	                 1	                 1	         61.283586	   -3.2019122e-005	         197.61756	         197.63917	        0.19741476	    -0.00036336093	       0.055102571	     -0.0064867903	         27.520168	     -0.0012939314	                 0	                 0	                 0	                 0	                 0	                 0	                 0	                 0	                 0	                 0	                 0	                 0	             2.096	                 0	                 0	                 0	                 0	                 0	                 0	                 0	                 0	                 0	                 0	                 0	                 0	                 0	      0.0007598935	     -0.0012939314	               2.1	          8308.929	                 0	                 0	                 0	                 0	                 0	                 0	        0.26409785	     -0.0012939314
	    9.5662955e-005	      0.0001770957	     -0.0035434813	     0.00019444644	                 0	                 1	            -1.875	                 0	                 0	             1.875	                 1	                 1	         62.656351	   -4.9117612e-005	         202.31283	         202.33434	        0.19739479	    -0.00043384871	       0.059168222	     -0.0084978313	         27.523023	      -0.001528308	                 0	                 0	                 0	                 0	                 0	                 0	                 0	                 0	                 0	                 0	                 0	                 0	             2.144	                 0	                 0	                 0	                 0	                 0	                 0	                 0	                 0	                 0	                 0	                 0	                 0	                 0	     0.00074110227	      -0.001528308	              2.15	          8308.979	                 0	                 0	                 0	                 0	                 0	                 0	        0.26683706	      -0.001528308
	    9.8155471e-005	     0.00017911572	     -0.0035942846	     0.00016532929	                 0	                 1	            -1.875	                 0	                 0	             1.875	                 1	                 1	         64.029173	    -6.590375e-005	         207.00861	         207.02999	        0.19737132	    -0.00050328309	       0.063007276	      -0.010474079	         27.526076	     -0.0017592743	                 0	                 0	                 0	                 0	                 0	                 0	                 0	                 0	                 0	                 0	                 0	                 0	             2.192	                 0	                 0	                 0	                 0	                 0	                 0	                 0	                 0	                 0	                 0	                 0	                 0	                 0	     0.00072223423	     -0.0017592743	               2.2	          8309.029	                 0	                 0	                 0	                 0	                 0	                 0	        0.26942675	     -0.0017592743
	     0.00010045771	     0.00018103076	     -0.0036429667	     0.00013768582	                 0	                 1	            -1.875	                 0	                 0	             1.875	                 1	                 1	         65.402063	   -8.2402544e-005	         211.70493	         211.72617	         0.1973444	    -0.00057180242	       0.066627131	      -0.012418224	         27.529316	     -0.0019868006	                 0	                 0	                 0	                 0	                 0	                 0	                 0	                 0	                 0	                 0	                 0	                 0	              2.24	                 0	                 0	                 0	                 0	                 0	                 0	                 0	                 0	                 0	                 0	                 0	                 0	                 0	     0.00070333845	     -0.0019868006	              2.25	          8309.079	                 0	                 0	                 0	                 0	                 0	                 0	        0.27186912	     -0.0019868006
	     0.00010256572	     0.00018284069	     -0.0036895826	     0.00011149037	                 0	                 1	            -1.875	                 0	                 0	             1.875	                 1	                 1	         66.775032	   -9.8635735e-005	         216.40183	         216.42291	        0.19731408	    -0.00063947245	       0.070029261	      -0.014337252	         27.532731	     -0.0022123877	                 0	                 0	                 0	                 0	                 0	                 0	                 0	                 0	                 0	                 0	                 0	                 0	             2.288	                 0	                 0	                 0	                 0	                 0	                 0	                 0	                 0	                 0	                 0	                 0	                 0	                 0	      0.0006844597	     -0.0022123877	               2.3	          8309.129	                 0	                 0	                 0	                 0	                 0	                 0	        0.27416654	     -0.0022123877
	     0.00010448855	     0.00018454877	     -0.0037341838	    8.6721525e-005	                 0	                 1	            -1.875	                 0	                 0	             1.875	                 1	                 1	          68.14809	    -0.00011463189	         221.09932	         221.12022	         0.1972804	    -0.00070642972	       0.073209577	      -0.016226014	         27.536312	     -0.0024342301	                 0	                 0	                 0	                 0	                 0	                 0	                 0	                 0	                 0	                 0	                 0	                 0	             2.336	                 0	                 0	                 0	                 0	                 0	                 0	                 0	                 0	                 0	                 0	                 0	                 0	                 0	      0.0006656354	     -0.0024342301	              2.35	          8309.179	                 0	                 0	                 0	                 0	                 0	                 0	        0.27632154	     -0.0024342301
	      0.0001061482	     0.00018614363	     -0.0037767923	    6.3383797e-005	                 0	                 1	            -1.875	                 0	                 0	             1.875	                 1	                 1	         69.521246	    -0.00013040503	         225.79745	         225.81815	        0.19724339	    -0.00077263496	        0.07611419	      -0.018095774	         27.540044	     -0.0026548138	                 0	                 0	                 0	                 0	                 0	                 0	                 0	                 0	                 0	                 0	                 0	                 0	               2.4	                 0	                 0	                 0	                 0	                 0	                 0	                 0	                 0	                 0	                 0	                 0	                 0	                 0	     0.00064690435	     -0.0026548138	               2.4	          8309.229	                 0	                 0	                 0	                 0	                 0	                 0	        0.27833898	     -0.0026548138
	     0.00010763024	     0.00018763433	     -0.0038173938	    4.1515394e-005	                 0	                 1	            -1.875	                 0	                 0	             1.875	                 1	                 1	         70.894507	    -0.00014598006	         230.49622	         230.51672	        0.19720308	    -0.00083824173	       0.078824876	      -0.019943018	         27.543917	     -0.0028730549	                 0	                 0	                 0	                 0	                 0	                 0	                 0	                 0	                 0	                 0	                 0	                 0	             2.448	                 0	                 0	                 0	                 0	                 0	                 0	                 0	                 0	                 0	                 0	                 0	                 0	                 0	     0.00062829921	     -0.0028730549	              2.45	          8309.279	                 0	                 0	                 0	                 0	                 0	                 0	         0.2802225	     -0.0028730549
